{
  "features": [
    {
      "geometry": { "coordinates": [2.308392, 49.866001], "type": "Point" },
      "properties": {
        "code": "109",
        "description": "",
        "id": "109",
        "name": "Carmel",
        "wheelchair_boarding": "unknown"
      },
      "type": "Feature"
    },
    {
      "geometry": { "coordinates": [2.292239, 49.894573], "type": "Point" },
      "properties": {
        "code": "2056",
        "description": "",
        "id": "2056",
        "name": "M. Culture A",
        "wheelchair_boarding": "unknown"
      },
      "type": "Feature"
    },
    {
      "geometry": { "coordinates": [2.37176, 49.864948], "type": "Point" },
      "properties": {
        "code": "536",
        "description": "",
        "id": "536",
        "name": "Pôle Hôtelier",
        "wheelchair_boarding": "unknown"
      },
      "type": "Feature"
    },
    {
      "geometry": { "coordinates": [2.280078, 49.870419], "type": "Point" },
      "properties": {
        "code": "881",
        "description": "",
        "id": "881",
        "name": "Pinel",
        "wheelchair_boarding": "unknown"
      },
      "type": "Feature"
    },
    {
      "geometry": { "coordinates": [2.422949, 49.875149], "type": "Point" },
      "properties": {
        "code": "645",
        "description": "",
        "id": "645",
        "name": "Edouard Ruelle",
        "wheelchair_boarding": "unknown"
      },
      "type": "Feature"
    },
    {
      "geometry": { "coordinates": [2.30367, 49.885357], "type": "Point" },
      "properties": {
        "code": "213",
        "description": "",
        "id": "213",
        "name": "C. de la Salle",
        "wheelchair_boarding": "unknown"
      },
      "type": "Feature"
    },
    {
      "geometry": { "coordinates": [2.292852, 49.893578], "type": "Point" },
      "properties": {
        "code": "1068",
        "description": "",
        "id": "1068",
        "name": "M. Culture C",
        "wheelchair_boarding": "unknown"
      },
      "type": "Feature"
    },
    {
      "geometry": { "coordinates": [2.302152, 49.89045], "type": "Point" },
      "properties": {
        "code": "1101",
        "description": "",
        "id": "1101",
        "name": "Emile Zola",
        "wheelchair_boarding": "unknown"
      },
      "type": "Feature"
    },
    {
      "geometry": { "coordinates": [2.284712, 49.90242], "type": "Point" },
      "properties": {
        "code": "219",
        "description": "",
        "id": "219",
        "name": "Charles Tellier",
        "wheelchair_boarding": "unknown"
      },
      "type": "Feature"
    },
    {
      "geometry": { "coordinates": [2.302362, 49.968037], "type": "Point" },
      "properties": {
        "code": "65",
        "description": "",
        "id": "65",
        "name": "Château d'Eau",
        "wheelchair_boarding": "unknown"
      },
      "type": "Feature"
    },
    {
      "geometry": { "coordinates": [2.310421, 49.837807], "type": "Point" },
      "properties": {
        "code": "557",
        "description": "",
        "id": "557",
        "name": "Le Petit Many",
        "wheelchair_boarding": "unknown"
      },
      "type": "Feature"
    },
    {
      "geometry": { "coordinates": [2.301385, 49.893223], "type": "Point" },
      "properties": {
        "code": "1087",
        "description": "",
        "id": "1087",
        "name": "P. de Justice",
        "wheelchair_boarding": "unknown"
      },
      "type": "Feature"
    },
    {
      "geometry": { "coordinates": [2.319627, 49.871796], "type": "Point" },
      "properties": {
        "code": "360",
        "description": "",
        "id": "360",
        "name": "Görlitz Quai A",
        "wheelchair_boarding": "unknown"
      },
      "type": "Feature"
    },
    {
      "geometry": { "coordinates": [2.31085, 49.947552], "type": "Point" },
      "properties": {
        "code": "389",
        "description": "",
        "id": "389",
        "name": "I. Deflesselle",
        "wheelchair_boarding": "unknown"
      },
      "type": "Feature"
    },
    {
      "geometry": { "coordinates": [2.284925, 49.871452], "type": "Point" },
      "properties": {
        "code": "1069",
        "description": "",
        "id": "1069",
        "name": "Espagne",
        "wheelchair_boarding": "unknown"
      },
      "type": "Feature"
    },
    {
      "geometry": { "coordinates": [2.266067, 49.885925], "type": "Point" },
      "properties": {
        "code": "288",
        "description": "",
        "id": "288",
        "name": "Elbeuf",
        "wheelchair_boarding": "unknown"
      },
      "type": "Feature"
    },
    {
      "geometry": { "coordinates": [2.341729, 49.862118], "type": "Point" },
      "properties": {
        "code": "519",
        "description": "",
        "id": "519",
        "name": "Place de Cagny",
        "wheelchair_boarding": "unknown"
      },
      "type": "Feature"
    },
    {
      "geometry": { "coordinates": [2.325191, 49.902122], "type": "Point" },
      "properties": {
        "code": "691",
        "description": "",
        "id": "691",
        "name": "T-Delambre",
        "wheelchair_boarding": "unknown"
      },
      "type": "Feature"
    },
    {
      "geometry": { "coordinates": [2.293557, 49.881962], "type": "Point" },
      "properties": {
        "code": "245",
        "description": "",
        "id": "245",
        "name": "Desmoulins",
        "wheelchair_boarding": "unknown"
      },
      "type": "Feature"
    },
    {
      "geometry": { "coordinates": [2.398654, 49.878605], "type": "Point" },
      "properties": {
        "code": "711",
        "description": "",
        "id": "711",
        "name": "Vert Bout",
        "wheelchair_boarding": "unknown"
      },
      "type": "Feature"
    },
    {
      "geometry": { "coordinates": [2.258953, 49.89426], "type": "Point" },
      "properties": {
        "code": "285",
        "description": "",
        "id": "285",
        "name": "Egl. Renancourt",
        "wheelchair_boarding": "unknown"
      },
      "type": "Feature"
    },
    {
      "geometry": { "coordinates": [2.31416, 49.949902], "type": "Point" },
      "properties": {
        "code": "57",
        "description": "",
        "id": "57",
        "name": "Beauquesne",
        "wheelchair_boarding": "unknown"
      },
      "type": "Feature"
    },
    {
      "geometry": { "coordinates": [2.311575, 49.888718], "type": "Point" },
      "properties": {
        "code": "992",
        "description": "",
        "id": "992",
        "name": "Caserne Dejean",
        "wheelchair_boarding": "unknown"
      },
      "type": "Feature"
    },
    {
      "geometry": { "coordinates": [2.361525, 49.870373], "type": "Point" },
      "properties": {
        "code": "345",
        "description": "",
        "id": "345",
        "name": "Gérard Philipe",
        "wheelchair_boarding": "unknown"
      },
      "type": "Feature"
    },
    {
      "geometry": { "coordinates": [2.275028, 49.944118], "type": "Point" },
      "properties": {
        "code": "878",
        "description": "",
        "id": "878",
        "name": "WALF",
        "wheelchair_boarding": "unknown"
      },
      "type": "Feature"
    },
    {
      "geometry": { "coordinates": [2.2517, 49.876911], "type": "Point" },
      "properties": {
        "code": "577",
        "description": "",
        "id": "577",
        "name": "Pont Saint-Jean",
        "wheelchair_boarding": "unknown"
      },
      "type": "Feature"
    },
    {
      "geometry": { "coordinates": [2.325694, 49.889294], "type": "Point" },
      "properties": {
        "code": "117",
        "description": "",
        "id": "117",
        "name": "Clos de l'Avre",
        "wheelchair_boarding": "unknown"
      },
      "type": "Feature"
    },
    {
      "geometry": { "coordinates": [2.3095, 49.870842], "type": "Point" },
      "properties": {
        "code": "230",
        "description": "",
        "id": "230",
        "name": "Croix Rompue",
        "wheelchair_boarding": "unknown"
      },
      "type": "Feature"
    },
    {
      "geometry": { "coordinates": [2.397858, 49.875183], "type": "Point" },
      "properties": {
        "code": "351",
        "description": "",
        "id": "351",
        "name": "Glisy",
        "wheelchair_boarding": "unknown"
      },
      "type": "Feature"
    },
    {
      "geometry": { "coordinates": [2.303438, 49.9202], "type": "Point" },
      "properties": {
        "code": "997",
        "description": "",
        "id": "997",
        "name": "C. Cial Nord C",
        "wheelchair_boarding": "unknown"
      },
      "type": "Feature"
    },
    {
      "geometry": { "coordinates": [2.346512, 49.892876], "type": "Point" },
      "properties": {
        "code": "554",
        "description": "",
        "id": "554",
        "name": "Pl. Libertés",
        "wheelchair_boarding": "unknown"
      },
      "type": "Feature"
    },
    {
      "geometry": { "coordinates": [2.289764, 49.896065], "type": "Point" },
      "properties": {
        "code": "2049",
        "description": "",
        "id": "2049",
        "name": "Saint-Jacques",
        "wheelchair_boarding": "unknown"
      },
      "type": "Feature"
    },
    {
      "geometry": { "coordinates": [2.310337, 49.837845], "type": "Point" },
      "properties": {
        "code": "556",
        "description": "",
        "id": "556",
        "name": "Le Petit Many",
        "wheelchair_boarding": "unknown"
      },
      "type": "Feature"
    },
    {
      "geometry": { "coordinates": [2.264652, 49.874485], "type": "Point" },
      "properties": {
        "code": "104",
        "description": "",
        "id": "104",
        "name": "Campus Quai B",
        "wheelchair_boarding": "unknown"
      },
      "type": "Feature"
    },
    {
      "geometry": { "coordinates": [2.294778, 49.88409], "type": "Point" },
      "properties": {
        "code": "1016",
        "description": "",
        "id": "1016",
        "name": "Coll. St-Martin",
        "wheelchair_boarding": "unknown"
      },
      "type": "Feature"
    },
    {
      "geometry": { "coordinates": [2.300004, 49.901554], "type": "Point" },
      "properties": {
        "code": "1157",
        "description": "",
        "id": "1157",
        "name": "Ctd Montrescu C",
        "wheelchair_boarding": "unknown"
      },
      "type": "Feature"
    },
    {
      "geometry": { "coordinates": [2.290118, 49.889286], "type": "Point" },
      "properties": {
        "code": "89",
        "description": "",
        "id": "89",
        "name": "N. Fontaine D",
        "wheelchair_boarding": "unknown"
      },
      "type": "Feature"
    },
    {
      "geometry": { "coordinates": [2.294468, 49.888569], "type": "Point" },
      "properties": {
        "code": "1209",
        "description": "",
        "id": "1209",
        "name": "Longueville",
        "wheelchair_boarding": "unknown"
      },
      "type": "Feature"
    },
    {
      "geometry": { "coordinates": [2.264145, 49.908054], "type": "Point" },
      "properties": {
        "code": "1118",
        "description": "",
        "id": "1118",
        "name": "Sully",
        "wheelchair_boarding": "unknown"
      },
      "type": "Feature"
    },
    {
      "geometry": { "coordinates": [2.241717, 49.858677], "type": "Point" },
      "properties": {
        "code": "493",
        "description": "",
        "id": "493",
        "name": "Numa Augaez",
        "wheelchair_boarding": "unknown"
      },
      "type": "Feature"
    },
    {
      "geometry": { "coordinates": [2.278827, 49.94313], "type": "Point" },
      "properties": {
        "code": "776",
        "description": "",
        "id": "776",
        "name": "COLAS",
        "wheelchair_boarding": "unknown"
      },
      "type": "Feature"
    },
    {
      "geometry": { "coordinates": [2.306737, 49.891068], "type": "Point" },
      "properties": {
        "code": "1130",
        "description": "",
        "id": "1130",
        "name": "Gare du Nord C",
        "wheelchair_boarding": "unknown"
      },
      "type": "Feature"
    },
    {
      "geometry": { "coordinates": [2.337215, 49.912109], "type": "Point" },
      "properties": {
        "code": "602",
        "description": "",
        "id": "602",
        "name": "René Cassin",
        "wheelchair_boarding": "unknown"
      },
      "type": "Feature"
    },
    {
      "geometry": { "coordinates": [2.282197, 49.876389], "type": "Point" },
      "properties": {
        "code": "2",
        "description": "",
        "id": "2",
        "name": "14 Juillet",
        "wheelchair_boarding": "unknown"
      },
      "type": "Feature"
    },
    {
      "geometry": { "coordinates": [2.29534, 49.910206], "type": "Point" },
      "properties": {
        "code": "11",
        "description": "",
        "id": "11",
        "name": "Abbé Hénocque",
        "wheelchair_boarding": "unknown"
      },
      "type": "Feature"
    },
    {
      "geometry": { "coordinates": [2.339744, 49.886852], "type": "Point" },
      "properties": {
        "code": "476",
        "description": "",
        "id": "476",
        "name": "Marius Petit",
        "wheelchair_boarding": "unknown"
      },
      "type": "Feature"
    },
    {
      "geometry": { "coordinates": [2.27367, 49.917595], "type": "Point" },
      "properties": {
        "code": "370",
        "description": "",
        "id": "370",
        "name": "Résidence Grant",
        "wheelchair_boarding": "unknown"
      },
      "type": "Feature"
    },
    {
      "geometry": { "coordinates": [2.273024, 49.933586], "type": "Point" },
      "properties": {
        "code": "919",
        "description": "",
        "id": "919",
        "name": "Wabco",
        "wheelchair_boarding": "unknown"
      },
      "type": "Feature"
    },
    {
      "geometry": { "coordinates": [2.282497, 49.868397], "type": "Point" },
      "properties": {
        "code": "1050",
        "description": "",
        "id": "1050",
        "name": "Grèce",
        "wheelchair_boarding": "unknown"
      },
      "type": "Feature"
    },
    {
      "geometry": { "coordinates": [2.290325, 49.890408], "type": "Point" },
      "properties": {
        "code": "64",
        "description": "",
        "id": "64",
        "name": "N. Fontaine A",
        "wheelchair_boarding": "unknown"
      },
      "type": "Feature"
    },
    {
      "geometry": { "coordinates": [2.281314, 49.883339], "type": "Point" },
      "properties": {
        "code": "640",
        "description": "",
        "id": "640",
        "name": "Royal Tank",
        "wheelchair_boarding": "unknown"
      },
      "type": "Feature"
    },
    {
      "geometry": { "coordinates": [2.303486, 49.82766], "type": "Point" },
      "properties": {
        "code": "648",
        "description": "",
        "id": "648",
        "name": "Résid.Véronique",
        "wheelchair_boarding": "unknown"
      },
      "type": "Feature"
    },
    {
      "geometry": { "coordinates": [2.216776, 49.898411], "type": "Point" },
      "properties": {
        "code": "486",
        "description": "",
        "id": "486",
        "name": "M. Saveuse",
        "wheelchair_boarding": "unknown"
      },
      "type": "Feature"
    },
    {
      "geometry": { "coordinates": [2.254816, 49.874184], "type": "Point" },
      "properties": {
        "code": "905",
        "description": "",
        "id": "905",
        "name": "CHU Quai B",
        "wheelchair_boarding": "unknown"
      },
      "type": "Feature"
    },
    {
      "geometry": { "coordinates": [2.29779, 49.888649], "type": "Point" },
      "properties": {
        "code": "1012",
        "description": "",
        "id": "1012",
        "name": "Cir. J. Verne B",
        "wheelchair_boarding": "unknown"
      },
      "type": "Feature"
    },
    {
      "geometry": { "coordinates": [2.327921, 49.869766], "type": "Point" },
      "properties": {
        "code": "487",
        "description": "",
        "id": "487",
        "name": "C. G. Mareschal",
        "wheelchair_boarding": "unknown"
      },
      "type": "Feature"
    },
    {
      "geometry": { "coordinates": [2.278631, 49.896076], "type": "Point" },
      "properties": {
        "code": "692",
        "description": "",
        "id": "692",
        "name": "Tivoli",
        "wheelchair_boarding": "unknown"
      },
      "type": "Feature"
    },
    {
      "geometry": { "coordinates": [2.282767, 49.875465], "type": "Point" },
      "properties": {
        "code": "529",
        "description": "",
        "id": "529",
        "name": "Paul Eluard",
        "wheelchair_boarding": "unknown"
      },
      "type": "Feature"
    },
    {
      "geometry": { "coordinates": [2.259913, 49.920792], "type": "Point" },
      "properties": {
        "code": "100",
        "description": "",
        "id": "100",
        "name": "Camping",
        "wheelchair_boarding": "unknown"
      },
      "type": "Feature"
    },
    {
      "geometry": { "coordinates": [2.301931, 49.907883], "type": "Point" },
      "properties": {
        "code": "1014",
        "description": "",
        "id": "1014",
        "name": "Clémenceau",
        "wheelchair_boarding": "unknown"
      },
      "type": "Feature"
    },
    {
      "geometry": { "coordinates": [2.310649, 49.904644], "type": "Point" },
      "properties": {
        "code": "252",
        "description": "",
        "id": "252",
        "name": "Doullens",
        "wheelchair_boarding": "unknown"
      },
      "type": "Feature"
    },
    {
      "geometry": { "coordinates": [2.254407, 49.911945], "type": "Point" },
      "properties": {
        "code": "1040",
        "description": "",
        "id": "1040",
        "name": "La Fontaine",
        "wheelchair_boarding": "unknown"
      },
      "type": "Feature"
    },
    {
      "geometry": { "coordinates": [2.259789, 49.920704], "type": "Point" },
      "properties": {
        "code": "101",
        "description": "",
        "id": "101",
        "name": "Camping",
        "wheelchair_boarding": "unknown"
      },
      "type": "Feature"
    },
    {
      "geometry": { "coordinates": [2.312626, 49.898834], "type": "Point" },
      "properties": {
        "code": "1084",
        "description": "",
        "id": "1084",
        "name": "Parc St-Pierre",
        "wheelchair_boarding": "unknown"
      },
      "type": "Feature"
    },
    {
      "geometry": { "coordinates": [2.284638, 49.893646], "type": "Point" },
      "properties": {
        "code": "367",
        "description": "",
        "id": "367",
        "name": "Simone Veil C",
        "wheelchair_boarding": "unknown"
      },
      "type": "Feature"
    },
    {
      "geometry": { "coordinates": [2.267457, 49.885269], "type": "Point" },
      "properties": {
        "code": "1128",
        "description": "",
        "id": "1128",
        "name": "Hélène Lockert",
        "wheelchair_boarding": "unknown"
      },
      "type": "Feature"
    },
    {
      "geometry": { "coordinates": [2.272917, 49.930351], "type": "Point" },
      "properties": {
        "code": "21",
        "description": "",
        "id": "21",
        "name": "AFPA",
        "wheelchair_boarding": "unknown"
      },
      "type": "Feature"
    },
    {
      "geometry": { "coordinates": [2.300988, 49.904434], "type": "Point" },
      "properties": {
        "code": "1008",
        "description": "",
        "id": "1008",
        "name": "Ctd François 1e",
        "wheelchair_boarding": "unknown"
      },
      "type": "Feature"
    },
    {
      "geometry": { "coordinates": [2.296219, 49.888855], "type": "Point" },
      "properties": {
        "code": "1121",
        "description": "",
        "id": "1121",
        "name": "Cir. J. Verne A",
        "wheelchair_boarding": "unknown"
      },
      "type": "Feature"
    },
    {
      "geometry": { "coordinates": [2.268518, 49.933422], "type": "Point" },
      "properties": {
        "code": "837",
        "description": "",
        "id": "837",
        "name": "Ozenfant",
        "wheelchair_boarding": "unknown"
      },
      "type": "Feature"
    },
    {
      "geometry": { "coordinates": [2.340784, 49.862465], "type": "Point" },
      "properties": {
        "code": "2018",
        "description": "",
        "id": "2018",
        "name": "Place de Cagny",
        "wheelchair_boarding": "unknown"
      },
      "type": "Feature"
    },
    {
      "geometry": { "coordinates": [2.327281, 49.876743], "type": "Point" },
      "properties": {
        "code": "857",
        "description": "",
        "id": "857",
        "name": "Square Laclos",
        "wheelchair_boarding": "unknown"
      },
      "type": "Feature"
    },
    {
      "geometry": { "coordinates": [2.294884, 49.923019], "type": "Point" },
      "properties": {
        "code": "860",
        "description": "",
        "id": "860",
        "name": "Le Titien",
        "wheelchair_boarding": "unknown"
      },
      "type": "Feature"
    },
    {
      "geometry": { "coordinates": [2.324931, 49.883377], "type": "Point" },
      "properties": {
        "code": "973",
        "description": "",
        "id": "973",
        "name": "Egl. St-Acheul",
        "wheelchair_boarding": "unknown"
      },
      "type": "Feature"
    },
    {
      "geometry": { "coordinates": [2.29013, 49.890732], "type": "Point" },
      "properties": {
        "code": "63",
        "description": "",
        "id": "63",
        "name": "N. Fontaine B",
        "wheelchair_boarding": "unknown"
      },
      "type": "Feature"
    },
    {
      "geometry": { "coordinates": [2.279855, 49.87048], "type": "Point" },
      "properties": {
        "code": "871",
        "description": "",
        "id": "871",
        "name": "Pinel",
        "wheelchair_boarding": "unknown"
      },
      "type": "Feature"
    },
    {
      "geometry": { "coordinates": [2.317558, 49.906559], "type": "Point" },
      "properties": {
        "code": "259",
        "description": "",
        "id": "259",
        "name": "Jacques Duclos",
        "wheelchair_boarding": "unknown"
      },
      "type": "Feature"
    },
    {
      "geometry": { "coordinates": [2.254821, 49.913929], "type": "Point" },
      "properties": {
        "code": "1022",
        "description": "",
        "id": "1022",
        "name": "Les coursives",
        "wheelchair_boarding": "unknown"
      },
      "type": "Feature"
    },
    {
      "geometry": { "coordinates": [2.311983, 49.878735], "type": "Point" },
      "properties": {
        "code": "378",
        "description": "",
        "id": "378",
        "name": "H. des Impôts",
        "wheelchair_boarding": "unknown"
      },
      "type": "Feature"
    },
    {
      "geometry": { "coordinates": [2.294989, 49.897549], "type": "Point" },
      "properties": {
        "code": "218",
        "description": "",
        "id": "218",
        "name": "Vogel Quai E",
        "wheelchair_boarding": "unknown"
      },
      "type": "Feature"
    },
    {
      "geometry": { "coordinates": [2.340926, 49.900291], "type": "Point" },
      "properties": {
        "code": "78",
        "description": "",
        "id": "78",
        "name": "Blanche Tâche",
        "wheelchair_boarding": "unknown"
      },
      "type": "Feature"
    },
    {
      "geometry": { "coordinates": [2.324461, 49.875942], "type": "Point" },
      "properties": {
        "code": "896",
        "description": "",
        "id": "896",
        "name": "Condorcet",
        "wheelchair_boarding": "unknown"
      },
      "type": "Feature"
    },
    {
      "geometry": { "coordinates": [2.314419, 49.837143], "type": "Point" },
      "properties": {
        "code": "329",
        "description": "",
        "id": "329",
        "name": "Saint-Fuscien",
        "wheelchair_boarding": "unknown"
      },
      "type": "Feature"
    },
    {
      "geometry": { "coordinates": [2.284911, 49.871471], "type": "Point" },
      "properties": {
        "code": "1070",
        "description": "",
        "id": "1070",
        "name": "Espagne",
        "wheelchair_boarding": "unknown"
      },
      "type": "Feature"
    },
    {
      "geometry": { "coordinates": [2.31212, 49.910614], "type": "Point" },
      "properties": {
        "code": "1063",
        "description": "",
        "id": "1063",
        "name": "Nautilus",
        "wheelchair_boarding": "unknown"
      },
      "type": "Feature"
    },
    {
      "geometry": { "coordinates": [2.273292, 49.897888], "type": "Point" },
      "properties": {
        "code": "425",
        "description": "",
        "id": "425",
        "name": "Lycée La Hotoie",
        "wheelchair_boarding": "unknown"
      },
      "type": "Feature"
    },
    {
      "geometry": { "coordinates": [2.303249, 49.911869], "type": "Point" },
      "properties": {
        "code": "1090",
        "description": "",
        "id": "1090",
        "name": "Pole E. Nord A",
        "wheelchair_boarding": "unknown"
      },
      "type": "Feature"
    },
    {
      "geometry": { "coordinates": [2.300701, 49.898483], "type": "Point" },
      "properties": {
        "code": "286",
        "description": "",
        "id": "286",
        "name": "Egl. Saint-Leu",
        "wheelchair_boarding": "unknown"
      },
      "type": "Feature"
    },
    {
      "geometry": { "coordinates": [2.278453, 49.881596], "type": "Point" },
      "properties": {
        "code": "719",
        "description": "",
        "id": "719",
        "name": "Victor Magniez",
        "wheelchair_boarding": "unknown"
      },
      "type": "Feature"
    },
    {
      "geometry": { "coordinates": [2.245909, 49.913826], "type": "Point" },
      "properties": {
        "code": "1035",
        "description": "",
        "id": "1035",
        "name": "Etouvie Quai A",
        "wheelchair_boarding": "unknown"
      },
      "type": "Feature"
    },
    {
      "geometry": { "coordinates": [2.398618, 49.848282], "type": "Point" },
      "properties": {
        "code": "205",
        "description": "",
        "id": "205",
        "name": "Corbie",
        "wheelchair_boarding": "unknown"
      },
      "type": "Feature"
    },
    {
      "geometry": { "coordinates": [2.26937, 49.941116], "type": "Point" },
      "properties": {
        "code": "741",
        "description": "",
        "id": "741",
        "name": "APAVE",
        "wheelchair_boarding": "unknown"
      },
      "type": "Feature"
    },
    {
      "geometry": { "coordinates": [2.324577, 49.91164], "type": "Point" },
      "properties": {
        "code": "446",
        "description": "",
        "id": "446",
        "name": "Marivaux",
        "wheelchair_boarding": "unknown"
      },
      "type": "Feature"
    },
    {
      "geometry": { "coordinates": [2.319054, 49.88266], "type": "Point" },
      "properties": {
        "code": "469",
        "description": "",
        "id": "469",
        "name": "Mons",
        "wheelchair_boarding": "unknown"
      },
      "type": "Feature"
    },
    {
      "geometry": { "coordinates": [2.287194, 49.894474], "type": "Point" },
      "properties": {
        "code": "145",
        "description": "",
        "id": "145",
        "name": "Simone Veil F",
        "wheelchair_boarding": "unknown"
      },
      "type": "Feature"
    },
    {
      "geometry": { "coordinates": [2.345274, 49.887051], "type": "Point" },
      "properties": {
        "code": "272",
        "description": "",
        "id": "272",
        "name": "Edmond Marquis",
        "wheelchair_boarding": "unknown"
      },
      "type": "Feature"
    },
    {
      "geometry": { "coordinates": [2.375998, 49.848991], "type": "Point" },
      "properties": {
        "code": "452",
        "description": "",
        "id": "452",
        "name": "Boves M.Barbier",
        "wheelchair_boarding": "unknown"
      },
      "type": "Feature"
    },
    {
      "geometry": { "coordinates": [2.298464, 49.970081], "type": "Point" },
      "properties": {
        "code": "414",
        "description": "",
        "id": "414",
        "name": "La Place",
        "wheelchair_boarding": "unknown"
      },
      "type": "Feature"
    },
    {
      "geometry": { "coordinates": [2.318882, 49.820599], "type": "Point" },
      "properties": {
        "code": "568",
        "description": "",
        "id": "568",
        "name": "La Pommeraie",
        "wheelchair_boarding": "unknown"
      },
      "type": "Feature"
    },
    {
      "geometry": { "coordinates": [2.292807, 49.880836], "type": "Point" },
      "properties": {
        "code": "1030",
        "description": "",
        "id": "1030",
        "name": "Delpech Quai B",
        "wheelchair_boarding": "unknown"
      },
      "type": "Feature"
    },
    {
      "geometry": { "coordinates": [2.315831, 49.94696], "type": "Point" },
      "properties": {
        "code": "197",
        "description": "",
        "id": "197",
        "name": "Coisy",
        "wheelchair_boarding": "unknown"
      },
      "type": "Feature"
    },
    {
      "geometry": { "coordinates": [2.31587, 49.887112], "type": "Point" },
      "properties": {
        "code": "1085",
        "description": "",
        "id": "1085",
        "name": "Pinceau",
        "wheelchair_boarding": "unknown"
      },
      "type": "Feature"
    },
    {
      "geometry": { "coordinates": [2.326552, 49.905239], "type": "Point" },
      "properties": {
        "code": "180",
        "description": "",
        "id": "180",
        "name": "Collège J.Verne",
        "wheelchair_boarding": "unknown"
      },
      "type": "Feature"
    },
    {
      "geometry": { "coordinates": [2.319098, 49.914333], "type": "Point" },
      "properties": {
        "code": "591",
        "description": "",
        "id": "591",
        "name": "R. d'Allonville",
        "wheelchair_boarding": "unknown"
      },
      "type": "Feature"
    },
    {
      "geometry": { "coordinates": [2.323635, 49.899117], "type": "Point" },
      "properties": {
        "code": "51",
        "description": "",
        "id": "51",
        "name": "Baudrez",
        "wheelchair_boarding": "unknown"
      },
      "type": "Feature"
    },
    {
      "geometry": { "coordinates": [2.29592, 49.897682], "type": "Point" },
      "properties": {
        "code": "212",
        "description": "",
        "id": "212",
        "name": "Vogel Quai C",
        "wheelchair_boarding": "unknown"
      },
      "type": "Feature"
    },
    {
      "geometry": { "coordinates": [2.284385, 49.909473], "type": "Point" },
      "properties": {
        "code": "391",
        "description": "",
        "id": "391",
        "name": "Ilôt St-Maurice",
        "wheelchair_boarding": "unknown"
      },
      "type": "Feature"
    },
    {
      "geometry": { "coordinates": [2.303166, 49.911808], "type": "Point" },
      "properties": {
        "code": "1089",
        "description": "",
        "id": "1089",
        "name": "Pole E. Nord B",
        "wheelchair_boarding": "unknown"
      },
      "type": "Feature"
    },
    {
      "geometry": { "coordinates": [2.323876, 49.87888], "type": "Point" },
      "properties": {
        "code": "598",
        "description": "",
        "id": "598",
        "name": "Rue du 31 Août",
        "wheelchair_boarding": "unknown"
      },
      "type": "Feature"
    },
    {
      "geometry": { "coordinates": [2.337381, 49.865189], "type": "Point" },
      "properties": {
        "code": "727",
        "description": "",
        "id": "727",
        "name": "Wasse",
        "wheelchair_boarding": "unknown"
      },
      "type": "Feature"
    },
    {
      "geometry": { "coordinates": [2.302649, 49.915489], "type": "Point" },
      "properties": {
        "code": "1103",
        "description": "",
        "id": "1103",
        "name": "Romain Rolland",
        "wheelchair_boarding": "unknown"
      },
      "type": "Feature"
    },
    {
      "geometry": { "coordinates": [2.246493, 49.882858], "type": "Point" },
      "properties": {
        "code": "114",
        "description": "",
        "id": "114",
        "name": "Cateuse",
        "wheelchair_boarding": "unknown"
      },
      "type": "Feature"
    },
    {
      "geometry": { "coordinates": [2.231255, 49.91391], "type": "Point" },
      "properties": {
        "code": "716",
        "description": "",
        "id": "716",
        "name": "Victor Hugo",
        "wheelchair_boarding": "unknown"
      },
      "type": "Feature"
    },
    {
      "geometry": { "coordinates": [2.345595, 49.893631], "type": "Point" },
      "properties": {
        "code": "555",
        "description": "",
        "id": "555",
        "name": "Pl. Libertés",
        "wheelchair_boarding": "unknown"
      },
      "type": "Feature"
    },
    {
      "geometry": { "coordinates": [2.351952, 49.863697], "type": "Point" },
      "properties": {
        "code": "431",
        "description": "",
        "id": "431",
        "name": "Longueau SNCF",
        "wheelchair_boarding": "unknown"
      },
      "type": "Feature"
    },
    {
      "geometry": { "coordinates": [2.358607, 49.868652], "type": "Point" },
      "properties": {
        "code": "734",
        "description": "",
        "id": "734",
        "name": "Les Alliés",
        "wheelchair_boarding": "unknown"
      },
      "type": "Feature"
    },
    {
      "geometry": { "coordinates": [2.30921, 49.894283], "type": "Point" },
      "properties": {
        "code": "16",
        "description": "",
        "id": "16",
        "name": "Alsace Lorraine",
        "wheelchair_boarding": "unknown"
      },
      "type": "Feature"
    },
    {
      "geometry": { "coordinates": [2.325801, 49.909191], "type": "Point" },
      "properties": {
        "code": "58",
        "description": "",
        "id": "58",
        "name": "Beaumar-chais",
        "wheelchair_boarding": "unknown"
      },
      "type": "Feature"
    },
    {
      "geometry": { "coordinates": [2.287728, 49.874722], "type": "Point" },
      "properties": {
        "code": "634",
        "description": "",
        "id": "634",
        "name": "Royaume-Uni",
        "wheelchair_boarding": "unknown"
      },
      "type": "Feature"
    },
    {
      "geometry": { "coordinates": [2.299922, 49.879261], "type": "Point" },
      "properties": {
        "code": "575",
        "description": "",
        "id": "575",
        "name": "La Providence",
        "wheelchair_boarding": "unknown"
      },
      "type": "Feature"
    },
    {
      "geometry": { "coordinates": [2.337785, 49.912182], "type": "Point" },
      "properties": {
        "code": "601",
        "description": "",
        "id": "601",
        "name": "René Cassin",
        "wheelchair_boarding": "unknown"
      },
      "type": "Feature"
    },
    {
      "geometry": { "coordinates": [2.329264, 49.90163], "type": "Point" },
      "properties": {
        "code": "208",
        "description": "",
        "id": "208",
        "name": "Cim. de Rivery",
        "wheelchair_boarding": "unknown"
      },
      "type": "Feature"
    },
    {
      "geometry": { "coordinates": [2.307039, 49.922169], "type": "Point" },
      "properties": {
        "code": "124",
        "description": "",
        "id": "124",
        "name": "Promenade",
        "wheelchair_boarding": "unknown"
      },
      "type": "Feature"
    },
    {
      "geometry": { "coordinates": [2.302694, 49.910183], "type": "Point" },
      "properties": {
        "code": "2044",
        "description": "",
        "id": "2044",
        "name": "Berlioz",
        "wheelchair_boarding": "unknown"
      },
      "type": "Feature"
    },
    {
      "geometry": { "coordinates": [2.393008, 49.84816], "type": "Point" },
      "properties": {
        "code": "72",
        "description": "",
        "id": "72",
        "name": "Gendar. Boves",
        "wheelchair_boarding": "unknown"
      },
      "type": "Feature"
    },
    {
      "geometry": { "coordinates": [2.273221, 49.854816], "type": "Point" },
      "properties": {
        "code": "593",
        "description": "",
        "id": "593",
        "name": "Route d'Amiens",
        "wheelchair_boarding": "unknown"
      },
      "type": "Feature"
    },
    {
      "geometry": { "coordinates": [2.298838, 49.916889], "type": "Point" },
      "properties": {
        "code": "538",
        "description": "",
        "id": "538",
        "name": "Picasso",
        "wheelchair_boarding": "unknown"
      },
      "type": "Feature"
    },
    {
      "geometry": { "coordinates": [2.308737, 49.894051], "type": "Point" },
      "properties": {
        "code": "15",
        "description": "",
        "id": "15",
        "name": "Alsace Lorraine",
        "wheelchair_boarding": "unknown"
      },
      "type": "Feature"
    },
    {
      "geometry": { "coordinates": [2.320063, 49.815884], "type": "Point" },
      "properties": {
        "code": "150",
        "description": "",
        "id": "150",
        "name": "La Chaussée",
        "wheelchair_boarding": "unknown"
      },
      "type": "Feature"
    },
    {
      "geometry": { "coordinates": [2.398159, 49.848057], "type": "Point" },
      "properties": {
        "code": "204",
        "description": "",
        "id": "204",
        "name": "Corbie",
        "wheelchair_boarding": "unknown"
      },
      "type": "Feature"
    },
    {
      "geometry": { "coordinates": [2.274881, 49.883057], "type": "Point" },
      "properties": {
        "code": "244",
        "description": "",
        "id": "244",
        "name": "Quatre Lemaire",
        "wheelchair_boarding": "unknown"
      },
      "type": "Feature"
    },
    {
      "geometry": { "coordinates": [2.251368, 49.917107], "type": "Point" },
      "properties": {
        "code": "1000",
        "description": "",
        "id": "1000",
        "name": "Collège R.Parks",
        "wheelchair_boarding": "unknown"
      },
      "type": "Feature"
    },
    {
      "geometry": { "coordinates": [2.312584, 49.89941], "type": "Point" },
      "properties": {
        "code": "1083",
        "description": "",
        "id": "1083",
        "name": "Parc St-Pierre",
        "wheelchair_boarding": "unknown"
      },
      "type": "Feature"
    },
    {
      "geometry": { "coordinates": [2.302665, 49.912273], "type": "Point" },
      "properties": {
        "code": "185",
        "description": "",
        "id": "185",
        "name": "Pole E. Nord D",
        "wheelchair_boarding": "unknown"
      },
      "type": "Feature"
    },
    {
      "geometry": { "coordinates": [2.228335, 49.913937], "type": "Point" },
      "properties": {
        "code": "253",
        "description": "",
        "id": "253",
        "name": "Dreuil",
        "wheelchair_boarding": "unknown"
      },
      "type": "Feature"
    },
    {
      "geometry": { "coordinates": [2.285062, 49.927254], "type": "Point" },
      "properties": {
        "code": "882",
        "description": "",
        "id": "882",
        "name": "Esp. Ind. Nord",
        "wheelchair_boarding": "unknown"
      },
      "type": "Feature"
    },
    {
      "geometry": { "coordinates": [2.302616, 49.922646], "type": "Point" },
      "properties": {
        "code": "122",
        "description": "",
        "id": "122",
        "name": "C. Cial Nord A",
        "wheelchair_boarding": "unknown"
      },
      "type": "Feature"
    },
    {
      "geometry": { "coordinates": [2.280173, 49.933823], "type": "Point" },
      "properties": {
        "code": "866",
        "description": "",
        "id": "866",
        "name": "Valéo",
        "wheelchair_boarding": "unknown"
      },
      "type": "Feature"
    },
    {
      "geometry": { "coordinates": [2.246372, 49.911636], "type": "Point" },
      "properties": {
        "code": "39",
        "description": "",
        "id": "39",
        "name": "Artois",
        "wheelchair_boarding": "unknown"
      },
      "type": "Feature"
    },
    {
      "geometry": { "coordinates": [2.296644, 49.878441], "type": "Point" },
      "properties": {
        "code": "1001",
        "description": "",
        "id": "1001",
        "name": "Cité-Providence",
        "wheelchair_boarding": "unknown"
      },
      "type": "Feature"
    },
    {
      "geometry": { "coordinates": [2.296068, 49.885948], "type": "Point" },
      "properties": {
        "code": "418",
        "description": "",
        "id": "418",
        "name": "Laurendeau",
        "wheelchair_boarding": "unknown"
      },
      "type": "Feature"
    },
    {
      "geometry": { "coordinates": [2.378802, 49.865036], "type": "Point" },
      "properties": {
        "code": "994",
        "description": "",
        "id": "994",
        "name": "C. Cial Glisy",
        "wheelchair_boarding": "unknown"
      },
      "type": "Feature"
    },
    {
      "geometry": { "coordinates": [2.2517, 49.86858], "type": "Point" },
      "properties": {
        "code": "36",
        "description": "",
        "id": "36",
        "name": "André Malraux",
        "wheelchair_boarding": "unknown"
      },
      "type": "Feature"
    },
    {
      "geometry": { "coordinates": [2.230907, 49.913895], "type": "Point" },
      "properties": {
        "code": "715",
        "description": "",
        "id": "715",
        "name": "Victor Hugo",
        "wheelchair_boarding": "unknown"
      },
      "type": "Feature"
    },
    {
      "geometry": { "coordinates": [2.302908, 49.922474], "type": "Point" },
      "properties": {
        "code": "935",
        "description": "",
        "id": "935",
        "name": "C. Cial Nord B",
        "wheelchair_boarding": "unknown"
      },
      "type": "Feature"
    },
    {
      "geometry": { "coordinates": [2.309115, 49.914906], "type": "Point" },
      "properties": {
        "code": "236",
        "description": "",
        "id": "236",
        "name": "Stade Nord",
        "wheelchair_boarding": "unknown"
      },
      "type": "Feature"
    },
    {
      "geometry": { "coordinates": [2.318947, 49.871346], "type": "Point" },
      "properties": {
        "code": "358",
        "description": "",
        "id": "358",
        "name": "Görlitz Quai C",
        "wheelchair_boarding": "unknown"
      },
      "type": "Feature"
    },
    {
      "geometry": { "coordinates": [2.287966, 49.887356], "type": "Point" },
      "properties": {
        "code": "382",
        "description": "",
        "id": "382",
        "name": "Saint-Honoré",
        "wheelchair_boarding": "unknown"
      },
      "type": "Feature"
    },
    {
      "geometry": { "coordinates": [2.297271, 49.911671], "type": "Point" },
      "properties": {
        "code": "1076",
        "description": "",
        "id": "1076",
        "name": "La Paix",
        "wheelchair_boarding": "unknown"
      },
      "type": "Feature"
    },
    {
      "geometry": { "coordinates": [2.295861, 49.902344], "type": "Point" },
      "properties": {
        "code": "550",
        "description": "",
        "id": "550",
        "name": "Krüger",
        "wheelchair_boarding": "unknown"
      },
      "type": "Feature"
    },
    {
      "geometry": { "coordinates": [2.294739, 49.914146], "type": "Point" },
      "properties": {
        "code": "730",
        "description": "",
        "id": "730",
        "name": "Watteau",
        "wheelchair_boarding": "unknown"
      },
      "type": "Feature"
    },
    {
      "geometry": { "coordinates": [2.299003, 49.919079], "type": "Point" },
      "properties": {
        "code": "313",
        "description": "",
        "id": "313",
        "name": "Fernand Léger",
        "wheelchair_boarding": "unknown"
      },
      "type": "Feature"
    },
    {
      "geometry": { "coordinates": [2.319796, 49.907249], "type": "Point" },
      "properties": {
        "code": "722",
        "description": "",
        "id": "722",
        "name": "Voltaire",
        "wheelchair_boarding": "unknown"
      },
      "type": "Feature"
    },
    {
      "geometry": { "coordinates": [2.27214, 49.885838], "type": "Point" },
      "properties": {
        "code": "271",
        "description": "",
        "id": "271",
        "name": "Route de Rouen",
        "wheelchair_boarding": "unknown"
      },
      "type": "Feature"
    },
    {
      "geometry": { "coordinates": [2.346805, 49.89872], "type": "Point" },
      "properties": {
        "code": "45",
        "description": "",
        "id": "45",
        "name": "Lucien Barbier",
        "wheelchair_boarding": "unknown"
      },
      "type": "Feature"
    },
    {
      "geometry": { "coordinates": [2.289618, 49.873814], "type": "Point" },
      "properties": {
        "code": "1048",
        "description": "",
        "id": "1048",
        "name": "G. Beauvais",
        "wheelchair_boarding": "unknown"
      },
      "type": "Feature"
    },
    {
      "geometry": { "coordinates": [2.277944, 49.865719], "type": "Point" },
      "properties": {
        "code": "1056",
        "description": "",
        "id": "1056",
        "name": "I.M.E.",
        "wheelchair_boarding": "unknown"
      },
      "type": "Feature"
    },
    {
      "geometry": { "coordinates": [2.274004, 49.917408], "type": "Point" },
      "properties": {
        "code": "369",
        "description": "",
        "id": "369",
        "name": "Résidence Grant",
        "wheelchair_boarding": "unknown"
      },
      "type": "Feature"
    },
    {
      "geometry": { "coordinates": [2.228256, 49.860172], "type": "Point" },
      "properties": {
        "code": "1214",
        "description": "",
        "id": "1214",
        "name": "Taisnil",
        "wheelchair_boarding": "unknown"
      },
      "type": "Feature"
    },
    {
      "geometry": { "coordinates": [2.361571, 49.937542], "type": "Point" },
      "properties": {
        "code": "472",
        "description": "",
        "id": "472",
        "name": "Moulin",
        "wheelchair_boarding": "unknown"
      },
      "type": "Feature"
    },
    {
      "geometry": { "coordinates": [2.284374, 49.880638], "type": "Point" },
      "properties": {
        "code": "516",
        "description": "",
        "id": "516",
        "name": "Parc de Berny",
        "wheelchair_boarding": "unknown"
      },
      "type": "Feature"
    },
    {
      "geometry": { "coordinates": [2.321751, 49.875729], "type": "Point" },
      "properties": {
        "code": "846",
        "description": "",
        "id": "846",
        "name": "Provinciales",
        "wheelchair_boarding": "unknown"
      },
      "type": "Feature"
    },
    {
      "geometry": { "coordinates": [2.230722, 49.843063], "type": "Point" },
      "properties": {
        "code": "492",
        "description": "",
        "id": "492",
        "name": "M. V. Selle",
        "wheelchair_boarding": "unknown"
      },
      "type": "Feature"
    },
    {
      "geometry": { "coordinates": [2.344164, 49.892914], "type": "Point" },
      "properties": {
        "code": "429",
        "description": "",
        "id": "429",
        "name": "Louise Michel",
        "wheelchair_boarding": "unknown"
      },
      "type": "Feature"
    },
    {
      "geometry": { "coordinates": [2.265119, 49.907722], "type": "Point" },
      "properties": {
        "code": "1119",
        "description": "",
        "id": "1119",
        "name": "Sully",
        "wheelchair_boarding": "unknown"
      },
      "type": "Feature"
    },
    {
      "geometry": { "coordinates": [2.247995, 49.866493], "type": "Point" },
      "properties": {
        "code": "2089",
        "description": "",
        "id": "2089",
        "name": "Moutiers",
        "wheelchair_boarding": "unknown"
      },
      "type": "Feature"
    },
    {
      "geometry": { "coordinates": [2.317433, 49.905895], "type": "Point" },
      "properties": {
        "code": "1028",
        "description": "",
        "id": "1028",
        "name": "C. Saint-Victor",
        "wheelchair_boarding": "unknown"
      },
      "type": "Feature"
    },
    {
      "geometry": { "coordinates": [2.325309, 49.873493], "type": "Point" },
      "properties": {
        "code": "215",
        "description": "",
        "id": "215",
        "name": "Cité Castors",
        "wheelchair_boarding": "unknown"
      },
      "type": "Feature"
    },
    {
      "geometry": { "coordinates": [2.233007, 49.859539], "type": "Point" },
      "properties": {
        "code": "366",
        "description": "",
        "id": "366",
        "name": "La Grenouillère",
        "wheelchair_boarding": "unknown"
      },
      "type": "Feature"
    },
    {
      "geometry": { "coordinates": [2.316682, 49.871075], "type": "Point" },
      "properties": {
        "code": "590",
        "description": "",
        "id": "590",
        "name": "Rue d'Aix",
        "wheelchair_boarding": "unknown"
      },
      "type": "Feature"
    },
    {
      "geometry": { "coordinates": [2.24787, 49.866413], "type": "Point" },
      "properties": {
        "code": "2090",
        "description": "",
        "id": "2090",
        "name": "Moutiers",
        "wheelchair_boarding": "unknown"
      },
      "type": "Feature"
    },
    {
      "geometry": { "coordinates": [2.277499, 49.889595], "type": "Point" },
      "properties": {
        "code": "680",
        "description": "",
        "id": "680",
        "name": "Strasbourg",
        "wheelchair_boarding": "unknown"
      },
      "type": "Feature"
    },
    {
      "geometry": { "coordinates": [2.309114, 49.915104], "type": "Point" },
      "properties": {
        "code": "235",
        "description": "",
        "id": "235",
        "name": "Stade Nord",
        "wheelchair_boarding": "unknown"
      },
      "type": "Feature"
    },
    {
      "geometry": { "coordinates": [2.323807, 49.878914], "type": "Point" },
      "properties": {
        "code": "597",
        "description": "",
        "id": "597",
        "name": "Rue du 31 Août",
        "wheelchair_boarding": "unknown"
      },
      "type": "Feature"
    },
    {
      "geometry": { "coordinates": [2.27175, 49.896999], "type": "Point" },
      "properties": {
        "code": "913",
        "description": "",
        "id": "913",
        "name": "Hippodrome",
        "wheelchair_boarding": "unknown"
      },
      "type": "Feature"
    },
    {
      "geometry": { "coordinates": [2.311814, 49.910652], "type": "Point" },
      "properties": {
        "code": "1062",
        "description": "",
        "id": "1062",
        "name": "Nautilus",
        "wheelchair_boarding": "unknown"
      },
      "type": "Feature"
    },
    {
      "geometry": { "coordinates": [2.284527, 49.893726], "type": "Point" },
      "properties": {
        "code": "368",
        "description": "",
        "id": "368",
        "name": "Simone Veil D",
        "wheelchair_boarding": "unknown"
      },
      "type": "Feature"
    },
    {
      "geometry": { "coordinates": [2.237885, 49.857777], "type": "Point" },
      "properties": {
        "code": "1223",
        "description": "",
        "id": "1223",
        "name": "Jean Catelas",
        "wheelchair_boarding": "unknown"
      },
      "type": "Feature"
    },
    {
      "geometry": { "coordinates": [2.281022, 49.895809], "type": "Point" },
      "properties": {
        "code": "608",
        "description": "",
        "id": "608",
        "name": "Rembault",
        "wheelchair_boarding": "unknown"
      },
      "type": "Feature"
    },
    {
      "geometry": { "coordinates": [2.313647, 49.946312], "type": "Point" },
      "properties": {
        "code": "477",
        "description": "",
        "id": "477",
        "name": "M. Poulainville",
        "wheelchair_boarding": "unknown"
      },
      "type": "Feature"
    },
    {
      "geometry": { "coordinates": [2.296191, 49.92345], "type": "Point" },
      "properties": {
        "code": "1208",
        "description": "",
        "id": "1208",
        "name": "Le Tintoret",
        "wheelchair_boarding": "unknown"
      },
      "type": "Feature"
    },
    {
      "geometry": { "coordinates": [2.399315, 49.873631], "type": "Point" },
      "properties": {
        "code": "669",
        "description": "",
        "id": "669",
        "name": "Stade",
        "wheelchair_boarding": "unknown"
      },
      "type": "Feature"
    },
    {
      "geometry": { "coordinates": [2.330309, 49.881222], "type": "Point" },
      "properties": {
        "code": "975",
        "description": "",
        "id": "975",
        "name": "Mercey",
        "wheelchair_boarding": "unknown"
      },
      "type": "Feature"
    },
    {
      "geometry": { "coordinates": [2.219396, 49.901222], "type": "Point" },
      "properties": {
        "code": "141",
        "description": "",
        "id": "141",
        "name": "Champ à Oisons",
        "wheelchair_boarding": "unknown"
      },
      "type": "Feature"
    },
    {
      "geometry": { "coordinates": [2.270278, 49.874588], "type": "Point" },
      "properties": {
        "code": "647",
        "description": "",
        "id": "647",
        "name": "Resid. Univ",
        "wheelchair_boarding": "unknown"
      },
      "type": "Feature"
    },
    {
      "geometry": { "coordinates": [2.307279, 49.891994], "type": "Point" },
      "properties": {
        "code": "336",
        "description": "",
        "id": "336",
        "name": "Gare du Nord F",
        "wheelchair_boarding": "unknown"
      },
      "type": "Feature"
    },
    {
      "geometry": { "coordinates": [2.33106, 49.876789], "type": "Point" },
      "properties": {
        "code": "612",
        "description": "",
        "id": "612",
        "name": "R. Gourdain",
        "wheelchair_boarding": "unknown"
      },
      "type": "Feature"
    },
    {
      "geometry": { "coordinates": [2.344995, 49.876331], "type": "Point" },
      "properties": {
        "code": "1079",
        "description": "",
        "id": "1079",
        "name": "Pont de l'Avre",
        "wheelchair_boarding": "unknown"
      },
      "type": "Feature"
    },
    {
      "geometry": { "coordinates": [2.216605, 49.900028], "type": "Point" },
      "properties": {
        "code": "85",
        "description": "",
        "id": "85",
        "name": "Boulevard",
        "wheelchair_boarding": "unknown"
      },
      "type": "Feature"
    },
    {
      "geometry": { "coordinates": [2.248061, 49.876205], "type": "Point" },
      "properties": {
        "code": "636",
        "description": "",
        "id": "636",
        "name": "Pont-de-Metz",
        "wheelchair_boarding": "unknown"
      },
      "type": "Feature"
    },
    {
      "geometry": { "coordinates": [2.285236, 49.907059], "type": "Point" },
      "properties": {
        "code": "300",
        "description": "",
        "id": "300",
        "name": "La Falaise",
        "wheelchair_boarding": "unknown"
      },
      "type": "Feature"
    },
    {
      "geometry": { "coordinates": [2.276046, 49.861771], "type": "Point" },
      "properties": {
        "code": "998",
        "description": "",
        "id": "998",
        "name": "C. Cial Sud",
        "wheelchair_boarding": "unknown"
      },
      "type": "Feature"
    },
    {
      "geometry": { "coordinates": [2.24066, 49.86673], "type": "Point" },
      "properties": {
        "code": "508",
        "description": "",
        "id": "508",
        "name": "Pasteur",
        "wheelchair_boarding": "unknown"
      },
      "type": "Feature"
    },
    {
      "geometry": { "coordinates": [2.354663, 49.871597], "type": "Point" },
      "properties": {
        "code": "1092",
        "description": "",
        "id": "1092",
        "name": "Poidevin",
        "wheelchair_boarding": "unknown"
      },
      "type": "Feature"
    },
    {
      "geometry": { "coordinates": [2.297185, 49.897503], "type": "Point" },
      "properties": {
        "code": "707",
        "description": "",
        "id": "707",
        "name": "La Bretesque",
        "wheelchair_boarding": "unknown"
      },
      "type": "Feature"
    },
    {
      "geometry": { "coordinates": [2.319072, 49.871391], "type": "Point" },
      "properties": {
        "code": "802",
        "description": "",
        "id": "802",
        "name": "Görlitz Quai D",
        "wheelchair_boarding": "unknown"
      },
      "type": "Feature"
    },
    {
      "geometry": { "coordinates": [2.325889, 49.889275], "type": "Point" },
      "properties": {
        "code": "118",
        "description": "",
        "id": "118",
        "name": "Clos de l'Avre",
        "wheelchair_boarding": "unknown"
      },
      "type": "Feature"
    },
    {
      "geometry": { "coordinates": [2.335992, 49.878906], "type": "Point" },
      "properties": {
        "code": "1110",
        "description": "",
        "id": "1110",
        "name": "Sobo",
        "wheelchair_boarding": "unknown"
      },
      "type": "Feature"
    },
    {
      "geometry": { "coordinates": [2.293911, 49.922768], "type": "Point" },
      "properties": {
        "code": "861",
        "description": "",
        "id": "861",
        "name": "Le Titien",
        "wheelchair_boarding": "unknown"
      },
      "type": "Feature"
    },
    {
      "geometry": { "coordinates": [2.313304, 49.905407], "type": "Point" },
      "properties": {
        "code": "606",
        "description": "",
        "id": "606",
        "name": "Roland Douay",
        "wheelchair_boarding": "unknown"
      },
      "type": "Feature"
    },
    {
      "geometry": { "coordinates": [2.361488, 49.937767], "type": "Point" },
      "properties": {
        "code": "471",
        "description": "",
        "id": "471",
        "name": "Moulin",
        "wheelchair_boarding": "unknown"
      },
      "type": "Feature"
    },
    {
      "geometry": { "coordinates": [2.33043, 49.91016], "type": "Point" },
      "properties": {
        "code": "450",
        "description": "",
        "id": "450",
        "name": "Les Marronniers",
        "wheelchair_boarding": "unknown"
      },
      "type": "Feature"
    },
    {
      "geometry": { "coordinates": [2.337006, 49.894474], "type": "Point" },
      "properties": {
        "code": "255",
        "description": "",
        "id": "255",
        "name": "République",
        "wheelchair_boarding": "unknown"
      },
      "type": "Feature"
    },
    {
      "geometry": { "coordinates": [2.271636, 49.888523], "type": "Point" },
      "properties": {
        "code": "344",
        "description": "",
        "id": "344",
        "name": "Gendar-merie",
        "wheelchair_boarding": "unknown"
      },
      "type": "Feature"
    },
    {
      "geometry": { "coordinates": [2.273984, 49.933136], "type": "Point" },
      "properties": {
        "code": "918",
        "description": "",
        "id": "918",
        "name": "Wabco",
        "wheelchair_boarding": "unknown"
      },
      "type": "Feature"
    },
    {
      "geometry": { "coordinates": [2.255623, 49.916569], "type": "Point" },
      "properties": {
        "code": "1060",
        "description": "",
        "id": "1060",
        "name": "Languedoc",
        "wheelchair_boarding": "unknown"
      },
      "type": "Feature"
    },
    {
      "geometry": { "coordinates": [2.370053, 49.86792], "type": "Point" },
      "properties": {
        "code": "1024",
        "description": "",
        "id": "1024",
        "name": "Croix de Fer",
        "wheelchair_boarding": "unknown"
      },
      "type": "Feature"
    },
    {
      "geometry": { "coordinates": [2.304771, 49.880852], "type": "Point" },
      "properties": {
        "code": "395",
        "description": "",
        "id": "395",
        "name": "Janvier",
        "wheelchair_boarding": "unknown"
      },
      "type": "Feature"
    },
    {
      "geometry": { "coordinates": [2.347857, 49.875565], "type": "Point" },
      "properties": {
        "code": "1185",
        "description": "",
        "id": "1185",
        "name": "Cité du Château",
        "wheelchair_boarding": "unknown"
      },
      "type": "Feature"
    },
    {
      "geometry": { "coordinates": [2.318067, 49.882145], "type": "Point" },
      "properties": {
        "code": "470",
        "description": "",
        "id": "470",
        "name": "Mons",
        "wheelchair_boarding": "unknown"
      },
      "type": "Feature"
    },
    {
      "geometry": { "coordinates": [2.290562, 49.889744], "type": "Point" },
      "properties": {
        "code": "90",
        "description": "",
        "id": "90",
        "name": "N. Fontaine C",
        "wheelchair_boarding": "unknown"
      },
      "type": "Feature"
    },
    {
      "geometry": { "coordinates": [2.313573, 49.836578], "type": "Point" },
      "properties": {
        "code": "328",
        "description": "",
        "id": "328",
        "name": "Saint-Fuscien",
        "wheelchair_boarding": "unknown"
      },
      "type": "Feature"
    },
    {
      "geometry": { "coordinates": [2.332268, 49.886368], "type": "Point" },
      "properties": {
        "code": "495",
        "description": "",
        "id": "495",
        "name": "La Neuville",
        "wheelchair_boarding": "unknown"
      },
      "type": "Feature"
    },
    {
      "geometry": { "coordinates": [2.221198, 49.903576], "type": "Point" },
      "properties": {
        "code": "83",
        "description": "",
        "id": "83",
        "name": "Boidin",
        "wheelchair_boarding": "unknown"
      },
      "type": "Feature"
    },
    {
      "geometry": { "coordinates": [2.287669, 49.877785], "type": "Point" },
      "properties": {
        "code": "404",
        "description": "",
        "id": "404",
        "name": "Joinville",
        "wheelchair_boarding": "unknown"
      },
      "type": "Feature"
    },
    {
      "geometry": { "coordinates": [2.3854, 49.864998], "type": "Point" },
      "properties": {
        "code": "922",
        "description": "",
        "id": "922",
        "name": "Clarins",
        "wheelchair_boarding": "unknown"
      },
      "type": "Feature"
    },
    {
      "geometry": { "coordinates": [2.332255, 49.872128], "type": "Point" },
      "properties": {
        "code": "694",
        "description": "",
        "id": "694",
        "name": "Elsa Triolet",
        "wheelchair_boarding": "unknown"
      },
      "type": "Feature"
    },
    {
      "geometry": { "coordinates": [2.310371, 49.904652], "type": "Point" },
      "properties": {
        "code": "251",
        "description": "",
        "id": "251",
        "name": "Doullens",
        "wheelchair_boarding": "unknown"
      },
      "type": "Feature"
    },
    {
      "geometry": { "coordinates": [2.329226, 49.875191], "type": "Point" },
      "properties": {
        "code": "277",
        "description": "",
        "id": "277",
        "name": "Edmond Rostand",
        "wheelchair_boarding": "unknown"
      },
      "type": "Feature"
    },
    {
      "geometry": { "coordinates": [2.279003, 49.886902], "type": "Point" },
      "properties": {
        "code": "1064",
        "description": "",
        "id": "1064",
        "name": "Libération A",
        "wheelchair_boarding": "unknown"
      },
      "type": "Feature"
    },
    {
      "geometry": { "coordinates": [2.25657, 49.871941], "type": "Point" },
      "properties": {
        "code": "151",
        "description": "",
        "id": "151",
        "name": "Laënnec Quai A",
        "wheelchair_boarding": "unknown"
      },
      "type": "Feature"
    },
    {
      "geometry": { "coordinates": [2.29493, 49.884205], "type": "Point" },
      "properties": {
        "code": "1017",
        "description": "",
        "id": "1017",
        "name": "Coll. St-Martin",
        "wheelchair_boarding": "unknown"
      },
      "type": "Feature"
    },
    {
      "geometry": { "coordinates": [2.273084, 49.930271], "type": "Point" },
      "properties": {
        "code": "22",
        "description": "",
        "id": "22",
        "name": "AFPA",
        "wheelchair_boarding": "unknown"
      },
      "type": "Feature"
    },
    {
      "geometry": { "coordinates": [2.295493, 49.892925], "type": "Point" },
      "properties": {
        "code": "1053",
        "description": "",
        "id": "1053",
        "name": "Hôtel de Ville",
        "wheelchair_boarding": "unknown"
      },
      "type": "Feature"
    },
    {
      "geometry": { "coordinates": [2.256755, 49.878056], "type": "Point" },
      "properties": {
        "code": "955",
        "description": "",
        "id": "955",
        "name": "Siberchicot",
        "wheelchair_boarding": "unknown"
      },
      "type": "Feature"
    },
    {
      "geometry": { "coordinates": [2.334658, 49.879436], "type": "Point" },
      "properties": {
        "code": "1111",
        "description": "",
        "id": "1111",
        "name": "Sobo",
        "wheelchair_boarding": "unknown"
      },
      "type": "Feature"
    },
    {
      "geometry": { "coordinates": [2.221226, 49.903282], "type": "Point" },
      "properties": {
        "code": "82",
        "description": "",
        "id": "82",
        "name": "Boidin",
        "wheelchair_boarding": "unknown"
      },
      "type": "Feature"
    },
    {
      "geometry": { "coordinates": [2.27434, 49.904514], "type": "Point" },
      "properties": {
        "code": "1038",
        "description": "",
        "id": "1038",
        "name": "Faubourg de Hem",
        "wheelchair_boarding": "unknown"
      },
      "type": "Feature"
    },
    {
      "geometry": { "coordinates": [2.347653, 49.898705], "type": "Point" },
      "properties": {
        "code": "616",
        "description": "",
        "id": "616",
        "name": "Lucien Barbier",
        "wheelchair_boarding": "unknown"
      },
      "type": "Feature"
    },
    {
      "geometry": { "coordinates": [2.2745, 49.943893], "type": "Point" },
      "properties": {
        "code": "877",
        "description": "",
        "id": "877",
        "name": "WALF",
        "wheelchair_boarding": "unknown"
      },
      "type": "Feature"
    },
    {
      "geometry": { "coordinates": [2.285688, 49.926991], "type": "Point" },
      "properties": {
        "code": "731",
        "description": "",
        "id": "731",
        "name": "Esp. Ind. Nord",
        "wheelchair_boarding": "unknown"
      },
      "type": "Feature"
    },
    {
      "geometry": { "coordinates": [2.303614, 49.886253], "type": "Point" },
      "properties": {
        "code": "214",
        "description": "",
        "id": "214",
        "name": "C. de la Salle",
        "wheelchair_boarding": "unknown"
      },
      "type": "Feature"
    },
    {
      "geometry": { "coordinates": [2.273775, 49.889366], "type": "Point" },
      "properties": {
        "code": "544",
        "description": "",
        "id": "544",
        "name": "Pinsonnat",
        "wheelchair_boarding": "unknown"
      },
      "type": "Feature"
    },
    {
      "geometry": { "coordinates": [2.307113, 49.890377], "type": "Point" },
      "properties": {
        "code": "1046",
        "description": "",
        "id": "1046",
        "name": "Gare du Nord B",
        "wheelchair_boarding": "unknown"
      },
      "type": "Feature"
    },
    {
      "geometry": { "coordinates": [2.281418, 49.939793], "type": "Point" },
      "properties": {
        "code": "824",
        "description": "",
        "id": "824",
        "name": "MGF Logistique",
        "wheelchair_boarding": "unknown"
      },
      "type": "Feature"
    },
    {
      "geometry": { "coordinates": [2.334907, 49.914623], "type": "Point" },
      "properties": {
        "code": "615",
        "description": "",
        "id": "615",
        "name": "La Haute Borne",
        "wheelchair_boarding": "unknown"
      },
      "type": "Feature"
    },
    {
      "geometry": { "coordinates": [2.294781, 49.913773], "type": "Point" },
      "properties": {
        "code": "729",
        "description": "",
        "id": "729",
        "name": "Watteau",
        "wheelchair_boarding": "unknown"
      },
      "type": "Feature"
    },
    {
      "geometry": { "coordinates": [2.301957, 49.871124], "type": "Point" },
      "properties": {
        "code": "46",
        "description": "",
        "id": "46",
        "name": "Aquapôle",
        "wheelchair_boarding": "unknown"
      },
      "type": "Feature"
    },
    {
      "geometry": { "coordinates": [2.286647, 49.886177], "type": "Point" },
      "properties": {
        "code": "503",
        "description": "",
        "id": "503",
        "name": "Pagès",
        "wheelchair_boarding": "unknown"
      },
      "type": "Feature"
    },
    {
      "geometry": { "coordinates": [2.358461, 49.918022], "type": "Point" },
      "properties": {
        "code": "29",
        "description": "",
        "id": "29",
        "name": "Les Alençons",
        "wheelchair_boarding": "unknown"
      },
      "type": "Feature"
    },
    {
      "geometry": { "coordinates": [2.27872, 49.915409], "type": "Point" },
      "properties": {
        "code": "441",
        "description": "",
        "id": "441",
        "name": "Gutenberg",
        "wheelchair_boarding": "unknown"
      },
      "type": "Feature"
    },
    {
      "geometry": { "coordinates": [2.21235, 49.900677], "type": "Point" },
      "properties": {
        "code": "656",
        "description": "",
        "id": "656",
        "name": "Saveuse",
        "wheelchair_boarding": "unknown"
      },
      "type": "Feature"
    },
    {
      "geometry": { "coordinates": [2.254974, 49.914001], "type": "Point" },
      "properties": {
        "code": "1023",
        "description": "",
        "id": "1023",
        "name": "Les Coursives",
        "wheelchair_boarding": "unknown"
      },
      "type": "Feature"
    },
    {
      "geometry": { "coordinates": [2.311265, 49.89756], "type": "Point" },
      "properties": {
        "code": "1081",
        "description": "",
        "id": "1081",
        "name": "Hortil-lonnages",
        "wheelchair_boarding": "unknown"
      },
      "type": "Feature"
    },
    {
      "geometry": { "coordinates": [2.347151, 49.888828], "type": "Point" },
      "properties": {
        "code": "701",
        "description": "",
        "id": "701",
        "name": "La Vallée",
        "wheelchair_boarding": "unknown"
      },
      "type": "Feature"
    },
    {
      "geometry": { "coordinates": [2.284609, 49.881203], "type": "Point" },
      "properties": {
        "code": "517",
        "description": "",
        "id": "517",
        "name": "Parc de Berny",
        "wheelchair_boarding": "unknown"
      },
      "type": "Feature"
    },
    {
      "geometry": { "coordinates": [2.32281, 49.91383], "type": "Point" },
      "properties": {
        "code": "306",
        "description": "",
        "id": "306",
        "name": "Fénelon",
        "wheelchair_boarding": "unknown"
      },
      "type": "Feature"
    },
    {
      "geometry": { "coordinates": [2.271389, 49.897133], "type": "Point" },
      "properties": {
        "code": "914",
        "description": "",
        "id": "914",
        "name": "Hippodrome",
        "wheelchair_boarding": "unknown"
      },
      "type": "Feature"
    },
    {
      "geometry": { "coordinates": [2.296214, 49.8955], "type": "Point" },
      "properties": {
        "code": "988",
        "description": "",
        "id": "988",
        "name": "Beffroi",
        "wheelchair_boarding": "unknown"
      },
      "type": "Feature"
    },
    {
      "geometry": { "coordinates": [2.300642, 49.921917], "type": "Point" },
      "properties": {
        "code": "443",
        "description": "",
        "id": "443",
        "name": "Michel Ange",
        "wheelchair_boarding": "unknown"
      },
      "type": "Feature"
    },
    {
      "geometry": { "coordinates": [2.286329, 49.898369], "type": "Point" },
      "properties": {
        "code": "1058",
        "description": "",
        "id": "1058",
        "name": "Jean Jaurès",
        "wheelchair_boarding": "unknown"
      },
      "type": "Feature"
    },
    {
      "geometry": { "coordinates": [2.394137, 49.864906], "type": "Point" },
      "properties": {
        "code": "907",
        "description": "",
        "id": "907",
        "name": "Albatros",
        "wheelchair_boarding": "unknown"
      },
      "type": "Feature"
    },
    {
      "geometry": { "coordinates": [2.268341, 49.899925], "type": "Point" },
      "properties": {
        "code": "129",
        "description": "",
        "id": "129",
        "name": "Robert Le Coq",
        "wheelchair_boarding": "unknown"
      },
      "type": "Feature"
    },
    {
      "geometry": { "coordinates": [2.269469, 49.846169], "type": "Point" },
      "properties": {
        "code": "897",
        "description": "",
        "id": "897",
        "name": "Dury",
        "wheelchair_boarding": "unknown"
      },
      "type": "Feature"
    },
    {
      "geometry": { "coordinates": [2.255776, 49.916607], "type": "Point" },
      "properties": {
        "code": "1061",
        "description": "",
        "id": "1061",
        "name": "Languedoc",
        "wheelchair_boarding": "unknown"
      },
      "type": "Feature"
    },
    {
      "geometry": { "coordinates": [2.422791, 49.880341], "type": "Point" },
      "properties": {
        "code": "74",
        "description": "",
        "id": "74",
        "name": "B. Tronville",
        "wheelchair_boarding": "unknown"
      },
      "type": "Feature"
    },
    {
      "geometry": { "coordinates": [2.302321, 49.968071], "type": "Point" },
      "properties": {
        "code": "66",
        "description": "",
        "id": "66",
        "name": "Château d'Eau",
        "wheelchair_boarding": "unknown"
      },
      "type": "Feature"
    },
    {
      "geometry": { "coordinates": [2.312011, 49.878895], "type": "Point" },
      "properties": {
        "code": "379",
        "description": "",
        "id": "379",
        "name": "H. des Impôts",
        "wheelchair_boarding": "unknown"
      },
      "type": "Feature"
    },
    {
      "geometry": { "coordinates": [2.320166, 49.881374], "type": "Point" },
      "properties": {
        "code": "900",
        "description": "",
        "id": "900",
        "name": "Abladène",
        "wheelchair_boarding": "unknown"
      },
      "type": "Feature"
    },
    {
      "geometry": { "coordinates": [2.400827, 49.84943], "type": "Point" },
      "properties": {
        "code": "54",
        "description": "",
        "id": "54",
        "name": "Dorgelès",
        "wheelchair_boarding": "unknown"
      },
      "type": "Feature"
    },
    {
      "geometry": { "coordinates": [2.316231, 49.886868], "type": "Point" },
      "properties": {
        "code": "1086",
        "description": "",
        "id": "1086",
        "name": "Pinceau",
        "wheelchair_boarding": "unknown"
      },
      "type": "Feature"
    },
    {
      "geometry": { "coordinates": [2.29658, 49.923378], "type": "Point" },
      "properties": {
        "code": "1207",
        "description": "",
        "id": "1207",
        "name": "Le Tintoret",
        "wheelchair_boarding": "unknown"
      },
      "type": "Feature"
    },
    {
      "geometry": { "coordinates": [2.2679, 49.886959], "type": "Point" },
      "properties": {
        "code": "174",
        "description": "",
        "id": "174",
        "name": "Cim. Saint-Jean",
        "wheelchair_boarding": "unknown"
      },
      "type": "Feature"
    },
    {
      "geometry": { "coordinates": [2.317346, 49.948765], "type": "Point" },
      "properties": {
        "code": "237",
        "description": "",
        "id": "237",
        "name": "Debussy",
        "wheelchair_boarding": "unknown"
      },
      "type": "Feature"
    },
    {
      "geometry": { "coordinates": [2.329155, 49.886482], "type": "Point" },
      "properties": {
        "code": "689",
        "description": "",
        "id": "689",
        "name": "Terrière",
        "wheelchair_boarding": "unknown"
      },
      "type": "Feature"
    },
    {
      "geometry": { "coordinates": [2.30413, 49.883877], "type": "Point" },
      "properties": {
        "code": "322",
        "description": "",
        "id": "322",
        "name": "De Fouilloy",
        "wheelchair_boarding": "unknown"
      },
      "type": "Feature"
    },
    {
      "geometry": { "coordinates": [2.416983, 49.88065], "type": "Point" },
      "properties": {
        "code": "512",
        "description": "",
        "id": "512",
        "name": "Paul Baroux",
        "wheelchair_boarding": "unknown"
      },
      "type": "Feature"
    },
    {
      "geometry": { "coordinates": [2.326746, 49.908222], "type": "Point" },
      "properties": {
        "code": "532",
        "description": "",
        "id": "532",
        "name": "Petit Fort",
        "wheelchair_boarding": "unknown"
      },
      "type": "Feature"
    },
    {
      "geometry": { "coordinates": [2.260311, 49.924511], "type": "Point" },
      "properties": {
        "code": "682",
        "description": "",
        "id": "682",
        "name": "Saint-Sauveur",
        "wheelchair_boarding": "unknown"
      },
      "type": "Feature"
    },
    {
      "geometry": { "coordinates": [2.332155, 49.898766], "type": "Point" },
      "properties": {
        "code": "169",
        "description": "",
        "id": "169",
        "name": "Matifas",
        "wheelchair_boarding": "unknown"
      },
      "type": "Feature"
    },
    {
      "geometry": { "coordinates": [2.32585, 49.876606], "type": "Point" },
      "properties": {
        "code": "902",
        "description": "",
        "id": "902",
        "name": "Square Laclos",
        "wheelchair_boarding": "unknown"
      },
      "type": "Feature"
    },
    {
      "geometry": { "coordinates": [2.26602, 49.939129], "type": "Point" },
      "properties": {
        "code": "2091",
        "description": "",
        "id": "2091",
        "name": "Croix de Pierre",
        "wheelchair_boarding": "unknown"
      },
      "type": "Feature"
    },
    {
      "geometry": { "coordinates": [2.287787, 49.885757], "type": "Point" },
      "properties": {
        "code": "320",
        "description": "",
        "id": "320",
        "name": "Fosse au Lait",
        "wheelchair_boarding": "unknown"
      },
      "type": "Feature"
    },
    {
      "geometry": { "coordinates": [2.358122, 49.870213], "type": "Point" },
      "properties": {
        "code": "1071",
        "description": "",
        "id": "1071",
        "name": "M. de Longueau",
        "wheelchair_boarding": "unknown"
      },
      "type": "Feature"
    },
    {
      "geometry": { "coordinates": [2.292752, 49.880737], "type": "Point" },
      "properties": {
        "code": "1029",
        "description": "",
        "id": "1029",
        "name": "Delpech Quai A",
        "wheelchair_boarding": "unknown"
      },
      "type": "Feature"
    },
    {
      "geometry": { "coordinates": [2.27753, 49.87521], "type": "Point" },
      "properties": {
        "code": "523",
        "description": "",
        "id": "523",
        "name": "Paul Claudel",
        "wheelchair_boarding": "unknown"
      },
      "type": "Feature"
    },
    {
      "geometry": { "coordinates": [2.33288, 49.870655], "type": "Point" },
      "properties": {
        "code": "137",
        "description": "",
        "id": "137",
        "name": "Iream",
        "wheelchair_boarding": "unknown"
      },
      "type": "Feature"
    },
    {
      "geometry": { "coordinates": [2.355092, 49.86692], "type": "Point" },
      "properties": {
        "code": "579",
        "description": "",
        "id": "579",
        "name": "Pl. la Victoire",
        "wheelchair_boarding": "unknown"
      },
      "type": "Feature"
    },
    {
      "geometry": { "coordinates": [2.293557, 49.881916], "type": "Point" },
      "properties": {
        "code": "246",
        "description": "",
        "id": "246",
        "name": "Desmoulins",
        "wheelchair_boarding": "unknown"
      },
      "type": "Feature"
    },
    {
      "geometry": { "coordinates": [2.315979, 49.891205], "type": "Point" },
      "properties": {
        "code": "239",
        "description": "",
        "id": "239",
        "name": "Dejean",
        "wheelchair_boarding": "unknown"
      },
      "type": "Feature"
    },
    {
      "geometry": { "coordinates": [2.383162, 49.862854], "type": "Point" },
      "properties": {
        "code": "293",
        "description": "",
        "id": "293",
        "name": "Etoile du Sud",
        "wheelchair_boarding": "unknown"
      },
      "type": "Feature"
    },
    {
      "geometry": { "coordinates": [2.25144, 49.882603], "type": "Point" },
      "properties": {
        "code": "25",
        "description": "",
        "id": "25",
        "name": "André Georges",
        "wheelchair_boarding": "unknown"
      },
      "type": "Feature"
    },
    {
      "geometry": { "coordinates": [2.252131, 49.868622], "type": "Point" },
      "properties": {
        "code": "35",
        "description": "",
        "id": "35",
        "name": "André Malraux",
        "wheelchair_boarding": "unknown"
      },
      "type": "Feature"
    },
    {
      "geometry": { "coordinates": [2.362738, 49.934551], "type": "Point" },
      "properties": {
        "code": "33",
        "description": "",
        "id": "33",
        "name": "ZAC Allonville",
        "wheelchair_boarding": "unknown"
      },
      "type": "Feature"
    },
    {
      "geometry": { "coordinates": [2.287825, 49.903885], "type": "Point" },
      "properties": {
        "code": "91",
        "description": "",
        "id": "91",
        "name": "Cagnard",
        "wheelchair_boarding": "unknown"
      },
      "type": "Feature"
    },
    {
      "geometry": { "coordinates": [2.24634, 49.882912], "type": "Point" },
      "properties": {
        "code": "115",
        "description": "",
        "id": "115",
        "name": "Cateuse",
        "wheelchair_boarding": "unknown"
      },
      "type": "Feature"
    },
    {
      "geometry": { "coordinates": [2.316766, 49.871113], "type": "Point" },
      "properties": {
        "code": "589",
        "description": "",
        "id": "589",
        "name": "Rue d'Aix",
        "wheelchair_boarding": "unknown"
      },
      "type": "Feature"
    },
    {
      "geometry": { "coordinates": [2.290601, 49.878223], "type": "Point" },
      "properties": {
        "code": "649",
        "description": "",
        "id": "649",
        "name": "Sagebien",
        "wheelchair_boarding": "unknown"
      },
      "type": "Feature"
    },
    {
      "geometry": { "coordinates": [2.312785, 49.914547], "type": "Point" },
      "properties": {
        "code": "588",
        "description": "",
        "id": "588",
        "name": "Rainneville",
        "wheelchair_boarding": "unknown"
      },
      "type": "Feature"
    },
    {
      "geometry": { "coordinates": [2.351281, 49.898182], "type": "Point" },
      "properties": {
        "code": "801",
        "description": "",
        "id": "801",
        "name": "Edouard Branly",
        "wheelchair_boarding": "unknown"
      },
      "type": "Feature"
    },
    {
      "geometry": { "coordinates": [2.298412, 49.892097], "type": "Point" },
      "properties": {
        "code": "1057",
        "description": "",
        "id": "1057",
        "name": "Jacobins",
        "wheelchair_boarding": "unknown"
      },
      "type": "Feature"
    },
    {
      "geometry": { "coordinates": [2.340967, 49.894627], "type": "Point" },
      "properties": {
        "code": "553",
        "description": "",
        "id": "553",
        "name": "Paul Langevin",
        "wheelchair_boarding": "unknown"
      },
      "type": "Feature"
    },
    {
      "geometry": { "coordinates": [2.295538, 49.872211], "type": "Point" },
      "properties": {
        "code": "1094",
        "description": "",
        "id": "1094",
        "name": "P. Cliniques",
        "wheelchair_boarding": "unknown"
      },
      "type": "Feature"
    },
    {
      "geometry": { "coordinates": [2.295405, 49.915478], "type": "Point" },
      "properties": {
        "code": "464",
        "description": "",
        "id": "464",
        "name": "Martin du Gard",
        "wheelchair_boarding": "unknown"
      },
      "type": "Feature"
    },
    {
      "geometry": { "coordinates": [2.356928, 49.873043], "type": "Point" },
      "properties": {
        "code": "179",
        "description": "",
        "id": "179",
        "name": "Collège J.Curie",
        "wheelchair_boarding": "unknown"
      },
      "type": "Feature"
    },
    {
      "geometry": { "coordinates": [2.271614, 49.905781], "type": "Point" },
      "properties": {
        "code": "8",
        "description": "",
        "id": "8",
        "name": "Espace Alliance",
        "wheelchair_boarding": "unknown"
      },
      "type": "Feature"
    },
    {
      "geometry": { "coordinates": [2.302472, 49.910046], "type": "Point" },
      "properties": {
        "code": "2043",
        "description": "",
        "id": "2043",
        "name": "Berlioz",
        "wheelchair_boarding": "unknown"
      },
      "type": "Feature"
    },
    {
      "geometry": { "coordinates": [2.332794, 49.901459], "type": "Point" },
      "properties": {
        "code": "613",
        "description": "",
        "id": "613",
        "name": "Cayeux",
        "wheelchair_boarding": "unknown"
      },
      "type": "Feature"
    },
    {
      "geometry": { "coordinates": [2.316221, 49.910454], "type": "Point" },
      "properties": {
        "code": "986",
        "description": "",
        "id": "986",
        "name": "Balzac",
        "wheelchair_boarding": "unknown"
      },
      "type": "Feature"
    },
    {
      "geometry": { "coordinates": [2.286176, 49.898533], "type": "Point" },
      "properties": {
        "code": "1059",
        "description": "",
        "id": "1059",
        "name": "Jean Jaurès",
        "wheelchair_boarding": "unknown"
      },
      "type": "Feature"
    },
    {
      "geometry": { "coordinates": [2.318798, 49.899368], "type": "Point" },
      "properties": {
        "code": "10",
        "description": "",
        "id": "10",
        "name": "Abbé de l'Epée",
        "wheelchair_boarding": "unknown"
      },
      "type": "Feature"
    },
    {
      "geometry": { "coordinates": [2.400521, 49.849251], "type": "Point" },
      "properties": {
        "code": "55",
        "description": "",
        "id": "55",
        "name": "Dorgelès",
        "wheelchair_boarding": "unknown"
      },
      "type": "Feature"
    },
    {
      "geometry": { "coordinates": [2.278419, 49.887054], "type": "Point" },
      "properties": {
        "code": "167",
        "description": "",
        "id": "167",
        "name": "Libération E",
        "wheelchair_boarding": "unknown"
      },
      "type": "Feature"
    },
    {
      "geometry": { "coordinates": [2.276497, 49.890678], "type": "Point" },
      "properties": {
        "code": "674",
        "description": "",
        "id": "674",
        "name": "Saint-Just",
        "wheelchair_boarding": "unknown"
      },
      "type": "Feature"
    },
    {
      "geometry": { "coordinates": [2.344621, 49.88765], "type": "Point" },
      "properties": {
        "code": "456",
        "description": "",
        "id": "456",
        "name": "Mairie de Camon",
        "wheelchair_boarding": "unknown"
      },
      "type": "Feature"
    },
    {
      "geometry": { "coordinates": [2.3789, 49.865017], "type": "Point" },
      "properties": {
        "code": "995",
        "description": "",
        "id": "995",
        "name": "C. Cial Glisy",
        "wheelchair_boarding": "unknown"
      },
      "type": "Feature"
    },
    {
      "geometry": { "coordinates": [2.31304, 49.87674], "type": "Point" },
      "properties": {
        "code": "161",
        "description": "",
        "id": "161",
        "name": "Rollin",
        "wheelchair_boarding": "unknown"
      },
      "type": "Feature"
    },
    {
      "geometry": { "coordinates": [2.273705, 49.934357], "type": "Point" },
      "properties": {
        "code": "732",
        "description": "",
        "id": "732",
        "name": "ADAPEI",
        "wheelchair_boarding": "unknown"
      },
      "type": "Feature"
    },
    {
      "geometry": { "coordinates": [2.289753, 49.877937], "type": "Point" },
      "properties": {
        "code": "650",
        "description": "",
        "id": "650",
        "name": "Sagebien",
        "wheelchair_boarding": "unknown"
      },
      "type": "Feature"
    },
    {
      "geometry": { "coordinates": [2.241364, 49.869064], "type": "Point" },
      "properties": {
        "code": "24",
        "description": "",
        "id": "24",
        "name": "Anatole France",
        "wheelchair_boarding": "unknown"
      },
      "type": "Feature"
    },
    {
      "geometry": { "coordinates": [2.239861, 49.863354], "type": "Point" },
      "properties": {
        "code": "267",
        "description": "",
        "id": "267",
        "name": "Ernest Cauvin",
        "wheelchair_boarding": "unknown"
      },
      "type": "Feature"
    },
    {
      "geometry": { "coordinates": [2.272677, 49.87854], "type": "Point" },
      "properties": {
        "code": "639",
        "description": "",
        "id": "639",
        "name": "Résid. du Stade",
        "wheelchair_boarding": "unknown"
      },
      "type": "Feature"
    },
    {
      "geometry": { "coordinates": [2.316793, 49.906441], "type": "Point" },
      "properties": {
        "code": "258",
        "description": "",
        "id": "258",
        "name": "Jacques Duclos",
        "wheelchair_boarding": "unknown"
      },
      "type": "Feature"
    },
    {
      "geometry": { "coordinates": [2.296216, 49.910423], "type": "Point" },
      "properties": {
        "code": "12",
        "description": "",
        "id": "12",
        "name": "Abbé Hénocque",
        "wheelchair_boarding": "unknown"
      },
      "type": "Feature"
    },
    {
      "geometry": { "coordinates": [2.267924, 49.879551], "type": "Point" },
      "properties": {
        "code": "983",
        "description": "",
        "id": "983",
        "name": "Ambroise Paré",
        "wheelchair_boarding": "unknown"
      },
      "type": "Feature"
    },
    {
      "geometry": { "coordinates": [2.328822, 49.881824], "type": "Point" },
      "properties": {
        "code": "976",
        "description": "",
        "id": "976",
        "name": "Mercey",
        "wheelchair_boarding": "unknown"
      },
      "type": "Feature"
    },
    {
      "geometry": { "coordinates": [2.316791, 49.912537], "type": "Point" },
      "properties": {
        "code": "620",
        "description": "",
        "id": "620",
        "name": "Ronsard",
        "wheelchair_boarding": "unknown"
      },
      "type": "Feature"
    },
    {
      "geometry": { "coordinates": [2.296232, 49.872074], "type": "Point" },
      "properties": {
        "code": "1093",
        "description": "",
        "id": "1093",
        "name": "P. Cliniques",
        "wheelchair_boarding": "unknown"
      },
      "type": "Feature"
    },
    {
      "geometry": { "coordinates": [2.243333, 49.871033], "type": "Point" },
      "properties": {
        "code": "485",
        "description": "",
        "id": "485",
        "name": "M.de Saloüel",
        "wheelchair_boarding": "unknown"
      },
      "type": "Feature"
    },
    {
      "geometry": { "coordinates": [2.278535, 49.930805], "type": "Point" },
      "properties": {
        "code": "585",
        "description": "",
        "id": "585",
        "name": "Queneuder",
        "wheelchair_boarding": "unknown"
      },
      "type": "Feature"
    },
    {
      "geometry": { "coordinates": [2.295912, 49.890385], "type": "Point" },
      "properties": {
        "code": "927",
        "description": "",
        "id": "927",
        "name": "Musée",
        "wheelchair_boarding": "unknown"
      },
      "type": "Feature"
    },
    {
      "geometry": { "coordinates": [2.335006, 49.867996], "type": "Point" },
      "properties": {
        "code": "62",
        "description": "",
        "id": "62",
        "name": "Bel Air",
        "wheelchair_boarding": "unknown"
      },
      "type": "Feature"
    },
    {
      "geometry": { "coordinates": [2.240618, 49.866596], "type": "Point" },
      "properties": {
        "code": "509",
        "description": "",
        "id": "509",
        "name": "Pasteur",
        "wheelchair_boarding": "unknown"
      },
      "type": "Feature"
    },
    {
      "geometry": { "coordinates": [2.275858, 49.890347], "type": "Point" },
      "properties": {
        "code": "675",
        "description": "",
        "id": "675",
        "name": "Saint-Just",
        "wheelchair_boarding": "unknown"
      },
      "type": "Feature"
    },
    {
      "geometry": { "coordinates": [2.281703, 49.88348], "type": "Point" },
      "properties": {
        "code": "641",
        "description": "",
        "id": "641",
        "name": "Royal Tank",
        "wheelchair_boarding": "unknown"
      },
      "type": "Feature"
    },
    {
      "geometry": { "coordinates": [2.243273, 49.880928], "type": "Point" },
      "properties": {
        "code": "265",
        "description": "",
        "id": "265",
        "name": "M. de P.de Metz",
        "wheelchair_boarding": "unknown"
      },
      "type": "Feature"
    },
    {
      "geometry": { "coordinates": [2.318591, 49.818264], "type": "Point" },
      "properties": {
        "code": "480",
        "description": "",
        "id": "480",
        "name": "M. S. Amiénois",
        "wheelchair_boarding": "unknown"
      },
      "type": "Feature"
    },
    {
      "geometry": { "coordinates": [2.323537, 49.899143], "type": "Point" },
      "properties": {
        "code": "52",
        "description": "",
        "id": "52",
        "name": "Baudrez",
        "wheelchair_boarding": "unknown"
      },
      "type": "Feature"
    },
    {
      "geometry": { "coordinates": [2.279475, 49.887295], "type": "Point" },
      "properties": {
        "code": "1065",
        "description": "",
        "id": "1065",
        "name": "Libération B",
        "wheelchair_boarding": "unknown"
      },
      "type": "Feature"
    },
    {
      "geometry": { "coordinates": [2.317152, 49.949032], "type": "Point" },
      "properties": {
        "code": "238",
        "description": "",
        "id": "238",
        "name": "Debussy",
        "wheelchair_boarding": "unknown"
      },
      "type": "Feature"
    },
    {
      "geometry": { "coordinates": [2.272552, 49.878521], "type": "Point" },
      "properties": {
        "code": "638",
        "description": "",
        "id": "638",
        "name": "Résid. du Stade",
        "wheelchair_boarding": "unknown"
      },
      "type": "Feature"
    },
    {
      "geometry": { "coordinates": [2.339577, 49.89584], "type": "Point" },
      "properties": {
        "code": "355",
        "description": "",
        "id": "355",
        "name": "La Tourelle",
        "wheelchair_boarding": "unknown"
      },
      "type": "Feature"
    },
    {
      "geometry": { "coordinates": [2.309255, 49.837513], "type": "Point" },
      "properties": {
        "code": "158",
        "description": "",
        "id": "158",
        "name": "Ch.  la Vallée",
        "wheelchair_boarding": "unknown"
      },
      "type": "Feature"
    },
    {
      "geometry": { "coordinates": [2.32198, 49.902512], "type": "Point" },
      "properties": {
        "code": "479",
        "description": "",
        "id": "479",
        "name": "M. de Rivery",
        "wheelchair_boarding": "unknown"
      },
      "type": "Feature"
    },
    {
      "geometry": { "coordinates": [2.256879, 49.878582], "type": "Point" },