{
  "features": [
    {
      "geometry": {
        "coordinates": [2.3791749477386475, 49.86395263671875],
        "type": "Point"
      },
      "properties": {
        "description": "",
        "id": "StopPoint:AMICNEMON2",
        "name": "Capitaine Nemo",
        "parent_station": "CNEMON2",
        "wheelchair_boarding": "unknown"
      },
      "type": "Feature"
    },
    {
      "geometry": {
        "coordinates": [2.362755060195923, 49.93458557128906],
        "type": "Point"
      },
      "properties": {
        "description": "",
        "id": "StopPoint:AMIALMOU1",
        "name": "ZAC Allonville",
        "parent_station": "ALMOU1",
        "wheelchair_boarding": "unknown"
      },
      "type": "Feature"
    },
    {
      "geometry": {
        "coordinates": [2.3829500675201416, 49.86299514770508],
        "type": "Point"
      },
      "properties": {
        "description": "",
        "id": "ETSUD2",
        "name": "Etoile du Sud",
        "wheelchair_boarding": "unknown"
      },
      "type": "Feature"
    },
    {
      "geometry": { "coordinates": [2.261285, 49.895172], "type": "Point" },
      "properties": {
        "description": "",
        "id": "StopPoint:AMIFRANC1",
        "name": "Francfort",
        "parent_station": "StopArea:AMIplace_FRANC",
        "wheelchair_boarding": "unknown"
      },
      "type": "Feature"
    },
    {
      "geometry": { "coordinates": [2.260323, 49.924512], "type": "Point" },
      "properties": {
        "description": "",
        "id": "StopPoint:AMISTSAU1",
        "name": "Saint-Sauveur",
        "parent_station": "StopArea:AMIplace_STSA",
        "wheelchair_boarding": "unknown"
      },
      "type": "Feature"
    },
    {
      "geometry": {
        "coordinates": [2.3187789916992188, 49.91413116455078],
        "type": "Point"
      },
      "properties": {
        "description": "",
        "id": "StopPoint:AMIRALLO2",
        "name": "Rue d'Allonville",
        "parent_station": "RALLO2",
        "wheelchair_boarding": "unknown"
      },
      "type": "Feature"
    },
    {
      "geometry": {
        "coordinates": [2.3450770378112793, 49.876258850097656],
        "type": "Point"
      },
      "properties": {
        "description": "",
        "id": "StopPoint:AMIPAVREN1",
        "name": "Pont de l'Avre",
        "parent_station": "PAVREN2",
        "wheelchair_boarding": "unknown"
      },
      "type": "Feature"
    },
    {
      "geometry": { "coordinates": [2.239925, 49.856541], "type": "Point" },
      "properties": {
        "description": "",
        "id": "StopArea:AMIplace_CONT",
        "name": "CONTY",
        "wheelchair_boarding": "unknown"
      },
      "type": "Feature"
    },
    {
      "geometry": {
        "coordinates": [2.3272740840911865, 49.89999771118164],
        "type": "Point"
      },
      "properties": {
        "description": "",
        "id": "StopPoint:AMIROPE1",
        "name": "Robert Petit",
        "parent_station": "ROPE1",
        "wheelchair_boarding": "unknown"
      },
      "type": "Feature"
    },
    {
      "geometry": {
        "coordinates": [2.2609000205993652, 49.8140983581543],
        "type": "Point"
      },
      "properties": {
        "description": "",
        "id": "StopPoint:AMIHEBECR",
        "name": "Hébécourt",
        "parent_station": "HEBEC",
        "wheelchair_boarding": "unknown"
      },
      "type": "Feature"
    },
    {
      "geometry": { "coordinates": [2.241376, 49.869067], "type": "Point" },
      "properties": {
        "description": "",
        "id": "StopPoint:AMIAFRAN2",
        "name": "Anatole France",
        "parent_station": "StopArea:AMIplace_AFRA",
        "wheelchair_boarding": "unknown"
      },
      "type": "Feature"
    },
    {
      "geometry": { "coordinates": [2.257411, 49.91046], "type": "Point" },
      "properties": {
        "description": "",
        "id": "StopPoint:AMIBARREN1",
        "name": "Place la Barre",
        "parent_station": "StopArea:AMIplace_BARR",
        "wheelchair_boarding": "unknown"
      },
      "type": "Feature"
    },
    {
      "geometry": {
        "coordinates": [2.304661989212036, 49.895713806152344],
        "type": "Point"
      },
      "properties": {
        "description": "",
        "id": "StopPoint:AMIPAMON4",
        "name": "Place du Don",
        "parent_station": "PAMON4",
        "wheelchair_boarding": "unknown"
      },
      "type": "Feature"
    },
    {
      "geometry": {
        "coordinates": [2.284723997116089, 49.90242004394531],
        "type": "Point"
      },
      "properties": {
        "description": "",
        "id": "StopPoint:AMICTELL1",
        "name": "Charles Tellier",
        "parent_station": "StopArea:AMIplace_CHTE",
        "wheelchair_boarding": "unknown"
      },
      "type": "Feature"
    },
    {
      "geometry": { "coordinates": [2.246552, 49.882861], "type": "Point" },
      "properties": {
        "description": "",
        "id": "StopArea:AMIplace_CATE",
        "name": "CATEUSE",
        "wheelchair_boarding": "unknown"
      },
      "type": "Feature"
    },
    {
      "geometry": { "coordinates": [2.263509, 49.887695], "type": "Point" },
      "properties": {
        "description": "",
        "id": "StopPoint:AMIEGJEA2",
        "name": "Eglise Petit St-Jean",
        "parent_station": "StopArea:AMIplace_EGSJ",
        "wheelchair_boarding": "unknown"
      },
      "type": "Feature"
    },
    {
      "geometry": {
        "coordinates": [2.3992199897766113, 49.87361145019531],
        "type": "Point"
      },
      "properties": {
        "description": "",
        "id": "STADE2",
        "name": "Stade",
        "wheelchair_boarding": "unknown"
      },
      "type": "Feature"
    },
    {
      "geometry": {
        "coordinates": [2.301943063735962, 49.90788650512695],
        "type": "Point"
      },
      "properties": {
        "description": "",
        "id": "StopPoint:AMICLEMEN1",
        "name": "Clémenceau",
        "parent_station": "StopArea:AMIplace_CLEM",
        "wheelchair_boarding": "unknown"
      },
      "type": "Feature"
    },
    {
      "geometry": {
        "coordinates": [2.3175699710845947, 49.90656280517578],
        "type": "Point"
      },
      "properties": {
        "description": "",
        "id": "StopPoint:AMIDUCLO2",
        "name": "Jacques Duclos",
        "parent_station": "StopArea:AMIplace_DUCLO",
        "wheelchair_boarding": "unknown"
      },
      "type": "Feature"
    },
    {
      "geometry": {
        "coordinates": [2.334918975830078, 49.914615631103516],
        "type": "Point"
      },
      "properties": {
        "description": "",
        "id": "StopPoint:AMIRIVERY",
        "name": "La Haute Borne",
        "parent_station": "RIVERY",
        "wheelchair_boarding": "unknown"
      },
      "type": "Feature"
    },
    {
      "geometry": {
        "coordinates": [2.3326289653778076, 49.87069320678711],
        "type": "Point"
      },
      "properties": {
        "description": "",
        "id": "StopPoint:AMICGMARN2",
        "name": "Iream",
        "parent_station": "StopArea:AMIplace_CGMA",
        "wheelchair_boarding": "unknown"
      },
      "type": "Feature"
    },
    {
      "geometry": {
        "coordinates": [2.27921199798584, 49.88621520996094],
        "type": "Point"
      },
      "properties": {
        "description": "",
        "id": "StopPoint:AMILIBERN3",
        "name": "Libération Quai C",
        "parent_station": "StopArea:AMIplace_LIB",
        "wheelchair_boarding": "unknown"
      },
      "type": "Feature"
    },
    {
      "geometry": {
        "coordinates": [2.3082830905914307, 49.870887756347656],
        "type": "Point"
      },
      "properties": {
        "description": "",
        "id": "StopPoint:AMICXROM1",
        "name": "Croix Rompue",
        "parent_station": "CXROM2",
        "wheelchair_boarding": "unknown"
      },
      "type": "Feature"
    },
    {
      "geometry": { "coordinates": [2.163255, 49.839431], "type": "Point" },
      "properties": {
        "description": "",
        "id": "StopArea:AMIplace_CRSE",
        "name": "CREUSE",
        "wheelchair_boarding": "unknown"
      },
      "type": "Feature"
    },
    {
      "geometry": {
        "coordinates": [2.322343111038208, 49.8902473449707],
        "type": "Point"
      },
      "properties": {
        "description": "",
        "id": "StopPoint:AMICTRI2",
        "name": "Centre de Tri",
        "parent_station": "StopArea:AMIplace_CTRI",
        "wheelchair_boarding": "unknown"
      },
      "type": "Feature"
    },
    {
      "geometry": {
        "coordinates": [2.3092639446258545, 49.83751678466797],
        "type": "Point"
      },
      "properties": {
        "description": "",
        "id": "StopPoint:AMICHVAL1",
        "name": "Chemin de la Vallée",
        "parent_station": "StopArea:AMIplace_CHVA",
        "wheelchair_boarding": "unknown"
      },
      "type": "Feature"
    },
    {
      "geometry": {
        "coordinates": [2.3934218883514404, 49.84764099121094],
        "type": "Point"
      },
      "properties": {
        "description": "",
        "id": "StopPoint:AMIBGEND2",
        "name": "Gendarmerie de Boves",
        "parent_station": "StopArea:AMIplace_BGEN",
        "wheelchair_boarding": "unknown"
      },
      "type": "Feature"
    },
    {
      "geometry": {
        "coordinates": [2.346095085144043, 49.859283447265625],
        "type": "Point"
      },
      "properties": {
        "description": "",
        "id": "StopArea:AMIplace_MTMI",
        "name": "MONTMIGNON",
        "wheelchair_boarding": "unknown"
      },
      "type": "Feature"
    },
    {
      "geometry": {
        "coordinates": [2.285860061645508, 49.892940521240234],
        "type": "Point"
      },
      "properties": {
        "description": "",
        "id": "StopPoint:AMIGROCHN4",
        "name": "Simone Veil Quai B",
        "parent_station": "StopArea:AMIplace_ROC",
        "wheelchair_boarding": "unknown"
      },
      "type": "Feature"
    },
    {
      "geometry": {
        "coordinates": [2.2999041080474854, 49.902679443359375],
        "type": "Point"
      },
      "properties": {
        "description": "",
        "id": "StopArea:AMIplace_CIT",
        "name": "CITADELLE",
        "wheelchair_boarding": "unknown"
      },
      "type": "Feature"
    },
    {
      "geometry": {
        "coordinates": [2.357909917831421, 49.95119857788086],
        "type": "Point"
      },
      "properties": {
        "description": "",
        "id": "StopPoint:AMICARDON1",
        "name": "Cardonnette",
        "parent_station": "CARDON1",
        "wheelchair_boarding": "unknown"
      },
      "type": "Feature"
    },
    {
      "geometry": {
        "coordinates": [2.3378050327301025, 49.912166595458984],
        "type": "Point"
      },
      "properties": {
        "description": "",
        "id": "StopPoint:AMIRCASS1",
        "name": "René Cassin",
        "parent_station": "RCASS1",
        "wheelchair_boarding": "unknown"
      },
      "type": "Feature"
    },
    {
      "geometry": { "coordinates": [2.317164, 49.949036], "type": "Point" },
      "properties": {
        "description": "",
        "id": "StopPoint:AMIDEBUS2",
        "name": "Debussy",
        "parent_station": "StopArea:AMIplace_DEBU",
        "wheelchair_boarding": "unknown"
      },
      "type": "Feature"
    },
    {
      "geometry": {
        "coordinates": [2.238569974899292, 49.858375549316406],
        "type": "Point"
      },
      "properties": {
        "description": "",
        "id": "StopPoint:AMIJCATELA",
        "name": "Jean Catelas",
        "parent_station": "JCATELA",
        "wheelchair_boarding": "unknown"
      },
      "type": "Feature"
    },
    {
      "geometry": {
        "coordinates": [2.2928640842437744, 49.89358139038086],
        "type": "Point"
      },
      "properties": {
        "description": "",
        "id": "StopPoint:AMIMACULN7",
        "name": "Maison de la Culture Quai C",
        "parent_station": "StopArea:AMIplace_MAC",
        "wheelchair_boarding": "unknown"
      },
      "type": "Feature"
    },
    {
      "geometry": {
        "coordinates": [2.3155829906463623, 49.816036224365234],
        "type": "Point"
      },
      "properties": {
        "description": "",
        "id": "StopPoint:AMISAINSE",
        "name": "Sains-en-Amiénois",
        "parent_station": "SAINSE",
        "wheelchair_boarding": "unknown"
      },
      "type": "Feature"
    },
    {
      "geometry": {
        "coordinates": [2.3036839962005615, 49.88536071777344],
        "type": "Point"
      },
      "properties": {
        "description": "",
        "id": "StopArea:AMIplace_CSAL",
        "name": "COLLEGE DE LA SALLE",
        "wheelchair_boarding": "unknown"
      },
      "type": "Feature"
    },
    {
      "geometry": {
        "coordinates": [2.3026680946350098, 49.91554260253906],
        "type": "Point"
      },
      "properties": {
        "description": "",
        "id": "StopArea:AMIplace_RORO",
        "name": "ROMAIN ROLLAND",
        "wheelchair_boarding": "unknown"
      },
      "type": "Feature"
    },
    {
      "geometry": { "coordinates": [2.356562, 49.887341], "type": "Point" },
      "properties": {
        "description": "",
        "id": "StopPoint:AMIHBARB1",
        "name": "Henri Barbusse",
        "parent_station": "StopArea:AMIplace_HBAR",
        "wheelchair_boarding": "unknown"
      },
      "type": "Feature"
    },
    {
      "geometry": {
        "coordinates": [2.304802894592285, 49.8709602355957],
        "type": "Point"
      },
      "properties": {
        "description": "",
        "id": "StopPoint:AMICHAGR2",
        "name": "Chambre d'Agriculture",
        "parent_station": "StopArea:AMIplace_CHAG",
        "wheelchair_boarding": "unknown"
      },
      "type": "Feature"
    },
    {
      "geometry": {
        "coordinates": [2.2212119102478027, 49.90331268310547],
        "type": "Point"
      },
      "properties": {
        "description": "",
        "id": "StopArea:AMIplace_BOID",
        "name": "BOIDIN",
        "wheelchair_boarding": "unknown"
      },
      "type": "Feature"
    },
    {
      "geometry": { "coordinates": [2.319625, 49.871779], "type": "Point" },
      "properties": {
        "description": "",
        "id": "StopArea:AMIplace_GOR",
        "name": "GORLITZ",
        "wheelchair_boarding": "unknown"
      },
      "type": "Feature"
    },
    {
      "geometry": {
        "coordinates": [2.3248438835144043, 49.8759880065918],
        "type": "Point"
      },
      "properties": {
        "description": "",
        "id": "StopArea:AMIplace_COND",
        "name": "CONDORCET",
        "wheelchair_boarding": "unknown"
      },
      "type": "Feature"
    },
    {
      "geometry": { "coordinates": [2.2956, 49.879459], "type": "Point" },
      "properties": {
        "description": "",
        "id": "StopPoint:AMICHARAN3",
        "name": "Cité-Providence",
        "parent_station": "StopArea:AMIplace_CSIN",
        "wheelchair_boarding": "unknown"
      },
      "type": "Feature"
    },
    {
      "geometry": { "coordinates": [2.272564, 49.878524], "type": "Point" },
      "properties": {
        "description": "",
        "id": "StopPoint:AMIRSTAD1",
        "name": "Résid. du Stade",
        "parent_station": "StopArea:AMIplace_RSTA",
        "wheelchair_boarding": "unknown"
      },
      "type": "Feature"
    },
    {
      "geometry": {
        "coordinates": [2.305875062942505, 49.89021682739258],
        "type": "Point"
      },
      "properties": {
        "description": "",
        "id": "StopPoint:AMIGAREND",
        "name": "Gare du Nord Quai D",
        "parent_station": "StopArea:AMIplace_GDN",
        "wheelchair_boarding": "unknown"
      },
      "type": "Feature"
    },
    {
      "geometry": {
        "coordinates": [2.298219919204712, 49.89213562011719],
        "type": "Point"
      },
      "properties": {
        "description": "",
        "id": "StopPoint:AMIJACOBIN",
        "name": "Jacobins",
        "parent_station": "JACOBIN",
        "wheelchair_boarding": "unknown"
      },
      "type": "Feature"
    },
    {
      "geometry": {
        "coordinates": [2.2551190853118896, 49.87482452392578],
        "type": "Point"
      },
      "properties": {
        "description": "",
        "id": "StopPoint:AMIHPLSUN4",
        "name": "CHU A. Picardie Quai A",
        "parent_station": "StopArea:AMIplace_HSU",
        "wheelchair_boarding": "unknown"
      },
      "type": "Feature"
    },
    {
      "geometry": {
        "coordinates": [2.2979109287261963, 49.89838790893555],
        "type": "Point"
      },
      "properties": {
        "description": "",
        "id": "StopPoint:AMIWAIDEN",
        "name": "Waide",
        "parent_station": "WAIDEN",
        "wheelchair_boarding": "unknown"
      },
      "type": "Feature"
    },
    {
      "geometry": {
        "coordinates": [2.293278932571411, 49.886287689208984],
        "type": "Point"
      },
      "properties": {
        "description": "",
        "id": "StopPoint:AMICOZETN2",
        "name": "Cozette",
        "parent_station": "StopArea:AMIplace_COZE",
        "wheelchair_boarding": "unknown"
      },
      "type": "Feature"
    },
    {
      "geometry": {
        "coordinates": [2.3047831058502197, 49.88085174560547],
        "type": "Point"
      },
      "properties": {
        "description": "",
        "id": "StopPoint:AMIJANVI1",
        "name": "Janvier",
        "parent_station": "StopArea:AMIplace_JANV",
        "wheelchair_boarding": "unknown"
      },
      "type": "Feature"
    },
    {
      "geometry": {
        "coordinates": [2.302457094192505, 49.888519287109375],
        "type": "Point"
      },
      "properties": {
        "description": "",
        "id": "StopPoint:AMIOTAGEN1",
        "name": "Otages",
        "parent_station": "OTAGEN2",
        "wheelchair_boarding": "unknown"
      },
      "type": "Feature"
    },
    {
      "geometry": {
        "coordinates": [2.2927498817443848, 49.880680084228516],
        "type": "Point"
      },
      "properties": {
        "description": "",
        "id": "DELPEN1",
        "name": "Delpech Quai A",
        "wheelchair_boarding": "unknown"
      },
      "type": "Feature"
    },
    {
      "geometry": {
        "coordinates": [2.318851947784424, 49.90280532836914],
        "type": "Point"
      },
      "properties": {
        "description": "",
        "id": "StopPoint:AMIDCORD2",
        "name": "Denis Cordonnier",
        "parent_station": "DCORD2",
        "wheelchair_boarding": "unknown"
      },
      "type": "Feature"
    },
    {
      "geometry": { "coordinates": [2.270921, 49.9059], "type": "Point" },
      "properties": {
        "description": "",
        "id": "StopArea:AMIplace_ABAT",
        "name": "ESPACE ALLIANCE",
        "wheelchair_boarding": "unknown"
      },
      "type": "Feature"
    },
    {
      "geometry": {
        "coordinates": [2.3007700443267822, 49.896724700927734],
        "type": "Point"
      },
      "properties": {
        "description": "",
        "id": "StopPoint:AMIUPJVN2",
        "name": "UPJV Saint-Leu",
        "parent_station": "UPJVN2",
        "wheelchair_boarding": "unknown"
      },
      "type": "Feature"
    },
    {
      "geometry": {
        "coordinates": [2.250978946685791, 49.898956298828125],
        "type": "Point"
      },
      "properties": {
        "description": "",
        "id": "StopPoint:AMICREMAT",
        "name": "Crematorium",
        "parent_station": "CREMAT",
        "wheelchair_boarding": "unknown"
      },
      "type": "Feature"
    },
    {
      "geometry": {
        "coordinates": [2.3443870544433594, 49.86402893066406],
        "type": "Point"
      },
      "properties": {
        "description": "",
        "id": "StopArea:AMIplace_LATA",
        "name": "LATAPIE",
        "wheelchair_boarding": "unknown"
      },
      "type": "Feature"
    },
    {
      "geometry": {
        "coordinates": [2.318142890930176, 49.90294647216797],
        "type": "Point"
      },
      "properties": {
        "description": "",
        "id": "StopPoint:AMIDCORD1",
        "name": "Denis Cordonnier",
        "parent_station": "DCORD2",
        "wheelchair_boarding": "unknown"
      },
      "type": "Feature"
    },
    {
      "geometry": {
        "coordinates": [2.383105993270874, 49.862815856933594],
        "type": "Point"
      },
      "properties": {
        "description": "",
        "id": "StopPoint:AMIETSUD1",
        "name": "Etoile du Sud",
        "parent_station": "ETSUD2",
        "wheelchair_boarding": "unknown"
      },
      "type": "Feature"
    },
    {
      "geometry": {
        "coordinates": [2.304661989212036, 49.895713806152344],
        "type": "Point"
      },
      "properties": {
        "description": "",
        "id": "PAMON4",
        "name": "Place du Don",
        "wheelchair_boarding": "unknown"
      },
      "type": "Feature"
    },
    {
      "geometry": { "coordinates": [2.240631, 49.866597], "type": "Point" },
      "properties": {
        "description": "",
        "id": "StopPoint:AMIPASTE2",
        "name": "Pasteur",
        "parent_station": "StopArea:AMIplace_PAST",
        "wheelchair_boarding": "unknown"
      },
      "type": "Feature"
    },
    {
      "geometry": {
        "coordinates": [2.332266092300415, 49.88641357421875],
        "type": "Point"
      },
      "properties": {
        "description": "",
        "id": "StopArea:AMIplace_NEUV",
        "name": "LA NEUVILLE",
        "wheelchair_boarding": "unknown"
      },
      "type": "Feature"
    },
    {
      "geometry": {
        "coordinates": [2.2948319911956787, 49.913814544677734],
        "type": "Point"
      },
      "properties": {
        "description": "",
        "id": "StopArea:AMIplace_WATT",
        "name": "WATTEAU",
        "wheelchair_boarding": "unknown"
      },
      "type": "Feature"
    },
    {
      "geometry": { "coordinates": [2.340492, 49.895109], "type": "Point" },
      "properties": {
        "description": "",
        "id": "StopArea:AMIplace_PLAN",
        "name": "PAUL LANGEVIN",
        "wheelchair_boarding": "unknown"
      },
      "type": "Feature"
    },
    {
      "geometry": { "coordinates": [2.311664, 49.870962], "type": "Point" },
      "properties": {
        "description": "",
        "id": "StopArea:AMIplace_CJML",
        "name": "COLLEGE JEAN-MARC LAURENT",
        "wheelchair_boarding": "unknown"
      },
      "type": "Feature"
    },
    {
      "geometry": {
        "coordinates": [2.2789080142974854, 49.94313430786133],
        "type": "Point"
      },
      "properties": {
        "description": "",
        "id": "COLAS2",
        "name": "COLAS",
        "wheelchair_boarding": "unknown"
      },
      "type": "Feature"
    },
    {
      "geometry": {
        "coordinates": [2.3233931064605713, 49.899051666259766],
        "type": "Point"
      },
      "properties": {
        "description": "",
        "id": "StopPoint:AMIBAUDR1",
        "name": "Baudrez",
        "parent_station": "BAUDR2",
        "wheelchair_boarding": "unknown"
      },
      "type": "Feature"
    },
    {
      "geometry": { "coordinates": [2.265145, 49.907744], "type": "Point" },
      "properties": {
        "description": "",
        "id": "StopPoint:AMISULLYN2",
        "name": "Sully",
        "parent_station": "StopArea:AMIplace_SULL",
        "wheelchair_boarding": "unknown"
      },
      "type": "Feature"
    },
    {
      "geometry": {
        "coordinates": [2.2789080142974854, 49.94313430786133],
        "type": "Point"
      },
      "properties": {
        "description": "",
        "id": "StopPoint:AMICOLAS2",
        "name": "COLAS",
        "parent_station": "COLAS2",
        "wheelchair_boarding": "unknown"
      },
      "type": "Feature"
    },
    {
      "geometry": {
        "coordinates": [2.2685859203338623, 49.93328094482422],
        "type": "Point"
      },
      "properties": {
        "description": "",
        "id": "OZENF2",
        "name": "Ozenfant",
        "wheelchair_boarding": "unknown"
      },
      "type": "Feature"
    },
    {
      "geometry": {
        "coordinates": [2.341279983520508, 49.91339111328125],
        "type": "Point"
      },
      "properties": {
        "description": "",
        "id": "StopPoint:AMILHABO1",
        "name": "La Haute Borne",
        "parent_station": "RIVERY",
        "wheelchair_boarding": "unknown"
      },
      "type": "Feature"
    },
    {
      "geometry": {
        "coordinates": [2.248065948486328, 49.87617874145508],
        "type": "Point"
      },
      "properties": {
        "description": "",
        "id": "StopArea:AMIplace_RPME",
        "name": "PONT-DE-METZ",
        "wheelchair_boarding": "unknown"
      },
      "type": "Feature"
    },
    {
      "geometry": { "coordinates": [2.252143, 49.868626], "type": "Point" },
      "properties": {
        "description": "",
        "id": "StopPoint:AMIAMALR1",
        "name": "André Malraux",
        "parent_station": "StopArea:AMIplace_AMAL",
        "wheelchair_boarding": "unknown"
      },
      "type": "Feature"
    },
    {
      "geometry": {
        "coordinates": [2.2985150814056396, 49.90056610107422],
        "type": "Point"
      },
      "properties": {
        "description": "",
        "id": "StopPoint:AMICIMONN6",
        "name": "Citadelle Montrescu Quai A",
        "parent_station": "StopArea:AMIplace_CIT",
        "wheelchair_boarding": "unknown"
      },
      "type": "Feature"
    },
    {
      "geometry": {
        "coordinates": [2.42295503616333, 49.875152587890625],
        "type": "Point"
      },
      "properties": {
        "description": "",
        "id": "RUELL2",
        "name": "Edouard Ruelle",
        "wheelchair_boarding": "unknown"
      },
      "type": "Feature"
    },
    {
      "geometry": {
        "coordinates": [2.337855100631714, 49.91447448730469],
        "type": "Point"
      },
      "properties": {
        "description": "",
        "id": "ACOLA2",
        "name": "Alain Colas",
        "wheelchair_boarding": "unknown"
      },
      "type": "Feature"
    },
    {
      "geometry": {
        "coordinates": [2.26582407951355, 49.93903350830078],
        "type": "Point"
      },
      "properties": {
        "description": "",
        "id": "CROIPIE2",
        "name": "Croix de Pierre",
        "wheelchair_boarding": "unknown"
      },
      "type": "Feature"
    },
    {
      "geometry": {
        "coordinates": [2.3320438861846924, 49.886207580566406],
        "type": "Point"
      },
      "properties": {
        "description": "",
        "id": "StopPoint:AMINEUVI2",
        "name": "La Neuville",
        "parent_station": "StopArea:AMIplace_NEUV",
        "wheelchair_boarding": "unknown"
      },
      "type": "Feature"
    },
    {
      "geometry": { "coordinates": [2.289651, 49.873816], "type": "Point" },
      "properties": {
        "description": "",
        "id": "StopArea:AMIplace_GBEA",
        "name": "GEORGES BEAUVAIS",
        "wheelchair_boarding": "unknown"
      },
      "type": "Feature"
    },
    {
      "geometry": {
        "coordinates": [2.29778790473938, 49.88869857788086],
        "type": "Point"
      },
      "properties": {
        "description": "",
        "id": "StopPoint:AMICIRQUN1",
        "name": "Cirque Jules Verne Quai B",
        "parent_station": "CIRQUN2",
        "wheelchair_boarding": "unknown"
      },
      "type": "Feature"
    },
    {
      "geometry": { "coordinates": [2.344176, 49.892915], "type": "Point" },
      "properties": {
        "description": "",
        "id": "StopPoint:AMILMICH1",
        "name": "Louise Michel",
        "parent_station": "StopArea:AMIplace_LMIC",
        "wheelchair_boarding": "unknown"
      },
      "type": "Feature"
    },
    {
      "geometry": {
        "coordinates": [2.3476650714874268, 49.898704528808594],
        "type": "Point"
      },
      "properties": {
        "description": "",
        "id": "StopPoint:AMILUBARB2",
        "name": "Lucien Barbier",
        "parent_station": "StopArea:AMIplace_LUBA",
        "wheelchair_boarding": "unknown"
      },
      "type": "Feature"
    },
    {
      "geometry": { "coordinates": [2.251495, 49.917142], "type": "Point" },
      "properties": {
        "description": "",
        "id": "StopArea:AMIplace_CETO",
        "name": "COLLEGE ROSA PARKS",
        "wheelchair_boarding": "unknown"
      },
      "type": "Feature"
    },
    {
      "geometry": {
        "coordinates": [2.2782840728759766, 49.89435577392578],
        "type": "Point"
      },
      "properties": {
        "description": "",
        "id": "StopPoint:AMICOLBEN1",
        "name": "Colbert",
        "parent_station": "StopArea:AMIplace_COLT",
        "wheelchair_boarding": "unknown"
      },
      "type": "Feature"
    },
    {
      "geometry": {
        "coordinates": [2.334357976913452, 49.8961067199707],
        "type": "Point"
      },
      "properties": {
        "description": "",
        "id": "StopArea:AMIplace_8MAI",
        "name": "8 MAI 1945",
        "wheelchair_boarding": "unknown"
      },
      "type": "Feature"
    },
    {
      "geometry": {
        "coordinates": [2.2680230140686035, 49.88697814941406],
        "type": "Point"
      },
      "properties": {
        "description": "",
        "id": "StopPoint:AMICJEAN1",
        "name": "Cimetière Saint-Jean",
        "parent_station": "CJEAN1",
        "wheelchair_boarding": "unknown"
      },
      "type": "Feature"
    },
    {
      "geometry": {
        "coordinates": [2.3789119720458984, 49.86491394042969],
        "type": "Point"
      },
      "properties": {
        "description": "",
        "id": "StopArea:AMIplace_CCG2",
        "name": "CENTRE COMMERCIAL GLISY",
        "wheelchair_boarding": "unknown"
      },
      "type": "Feature"
    },
    {
      "geometry": {
        "coordinates": [2.3006110191345215, 49.92197036743164],
        "type": "Point"
      },
      "properties": {
        "description": "",
        "id": "StopArea:AMIplace_MANG",
        "name": "MICHEL ANGE",
        "wheelchair_boarding": "unknown"
      },
      "type": "Feature"
    },
    {
      "geometry": {
        "coordinates": [2.295413017272949, 49.91547775268555],
        "type": "Point"
      },
      "properties": {
        "description": "",
        "id": "StopPoint:AMIMGARD2",
        "name": "Martin du Gard",
        "parent_station": "StopArea:AMIplace_MGARD",
        "wheelchair_boarding": "unknown"
      },
      "type": "Feature"
    },
    {
      "geometry": {
        "coordinates": [2.295351982116699, 49.91020965576172],
        "type": "Point"
      },
      "properties": {
        "description": "",
        "id": "StopPoint:AMIABHEN1",
        "name": "Abbé Hénocque",
        "parent_station": "StopArea:AMIplace_ABHE",
        "wheelchair_boarding": "unknown"
      },
      "type": "Feature"
    },
    {
      "geometry": { "coordinates": [2.312664, 49.880915], "type": "Point" },
      "properties": {
        "description": "",
        "id": "StopArea:AMIplace_3D.I",
        "name": "3EME D.I.",
        "wheelchair_boarding": "unknown"
      },
      "type": "Feature"
    },
    {
      "geometry": {
        "coordinates": [2.2152140140533447, 49.89852523803711],
        "type": "Point"
      },
      "properties": {
        "description": "",
        "id": "StopArea:AMIplace_MSAV",
        "name": "MAIRIE DE SAVEUSE",
        "wheelchair_boarding": "unknown"
      },
      "type": "Feature"
    },
    {
      "geometry": {
        "coordinates": [2.358077049255371, 49.86825942993164],
        "type": "Point"
      },
      "properties": {
        "description": "",
        "id": "StopPoint:AMIALLIE2",
        "name": "Les Alliés",
        "parent_station": "StopArea:AMIplace_ALLI",
        "wheelchair_boarding": "unknown"
      },
      "type": "Feature"
    },
    {
      "geometry": {
        "coordinates": [2.3264520168304443, 49.877197265625],
        "type": "Point"
      },
      "properties": {
        "description": "",
        "id": "StopArea:AMIplace_SQLA",
        "name": "SQUARE LACLOS",
        "wheelchair_boarding": "unknown"
      },
      "type": "Feature"
    },
    {
      "geometry": {
        "coordinates": [2.284621000289917, 49.88120651245117],
        "type": "Point"
      },
      "properties": {
        "description": "",
        "id": "StopPoint:AMIPBERN2",
        "name": "Parc de Berny",
        "parent_station": "StopArea:AMIplace_PARC",
        "wheelchair_boarding": "unknown"
      },
      "type": "Feature"
    },
    {
      "geometry": {
        "coordinates": [2.3064119815826416, 49.888858795166016],
        "type": "Point"
      },
      "properties": {
        "description": "",
        "id": "StopPoint:AMIGNORD",
        "name": "Gare du Nord Quai G",
        "parent_station": "StopArea:AMIplace_GDN",
        "wheelchair_boarding": "unknown"
      },
      "type": "Feature"
    },
    {
      "geometry": {
        "coordinates": [2.269355058670044, 49.91944885253906],
        "type": "Point"
      },
      "properties": {
        "description": "",
        "id": "StopPoint:AMIBERTR1",
        "name": "Bertricourt",
        "parent_station": "BERTR2",
        "wheelchair_boarding": "unknown"
      },
      "type": "Feature"
    },
    {
      "geometry": {
        "coordinates": [2.358618974685669, 49.86865234375],
        "type": "Point"
      },
      "properties": {
        "description": "",
        "id": "StopPoint:AMIALLIE1",
        "name": "Les Alliés",
        "parent_station": "StopArea:AMIplace_ALLI",
        "wheelchair_boarding": "unknown"
      },
      "type": "Feature"
    },
    {
      "geometry": { "coordinates": [2.239873, 49.863355], "type": "Point" },
      "properties": {
        "description": "",
        "id": "StopPoint:AMIECAUV1",
        "name": "Ernest Cauvin",
        "parent_station": "StopArea:AMIplace_ECAU",
        "wheelchair_boarding": "unknown"
      },
      "type": "Feature"
    },
    {
      "geometry": { "coordinates": [2.2647, 49.888081], "type": "Point" },
      "properties": {
        "description": "",
        "id": "StopArea:AMIplace_COLB",
        "name": "LA SELLE",
        "wheelchair_boarding": "unknown"
      },
      "type": "Feature"
    },
    {
      "geometry": {
        "coordinates": [2.2675609588623047, 49.87947463989258],
        "type": "Point"
      },
      "properties": {
        "description": "",
        "id": "StopPoint:AMIAMPARN1",
        "name": "Ambroise Paré",
        "parent_station": "StopArea:AMIplace_APAR",
        "wheelchair_boarding": "unknown"
      },
      "type": "Feature"
    },
    {
      "geometry": {
        "coordinates": [2.2927498817443848, 49.880680084228516],
        "type": "Point"
      },
      "properties": {
        "description": "",
        "id": "StopPoint:AMIDELPEN1",
        "name": "Delpech Quai A",
        "parent_station": "DELPEN1",
        "wheelchair_boarding": "unknown"
      },
      "type": "Feature"
    },
    {
      "geometry": {
        "coordinates": [2.323820114135742, 49.8789176940918],
        "type": "Point"
      },
      "properties": {
        "description": "",
        "id": "StopPoint:AMIRAOUT1",
        "name": "Rue du 31 Août",
        "parent_station": "StopArea:AMIplace_AOUT",
        "wheelchair_boarding": "unknown"
      },
      "type": "Feature"
    },
    {
      "geometry": { "coordinates": [2.356724, 49.873284], "type": "Point" },
      "properties": {
        "description": "",
        "id": "StopPoint:AMICJOCU2",
        "name": "Collège Joliot-Curie",
        "parent_station": "StopArea:AMIplace_CJOC",
        "wheelchair_boarding": "unknown"
      },
      "type": "Feature"
    },
    {
      "geometry": { "coordinates": [2.273233, 49.854821], "type": "Point" },
      "properties": {
        "description": "",
        "id": "StopPoint:AMIRAMIE1",
        "name": "Route d'Amiens",
        "parent_station": "StopArea:AMIplace_RAMI",
        "wheelchair_boarding": "unknown"
      },
      "type": "Feature"
    },
    {
      "geometry": {
        "coordinates": [2.3092639446258545, 49.83751678466797],
        "type": "Point"
      },
      "properties": {
        "description": "",
        "id": "StopArea:AMIplace_CHVA",
        "name": "CHEMIN DE LA VALLEE",
        "wheelchair_boarding": "unknown"
      },
      "type": "Feature"
    },
    {
      "geometry": {
        "coordinates": [2.278599977493286, 49.93077850341797],
        "type": "Point"
      },
      "properties": {
        "description": "",
        "id": "QUENE1",
        "name": "Queneuder",
        "wheelchair_boarding": "unknown"
      },
      "type": "Feature"
    },
    {
      "geometry": {
        "coordinates": [2.3022749423980713, 49.891292572021484],
        "type": "Point"
      },
      "properties": {
        "description": "",
        "id": "RGOBLN2",
        "name": "René Goblet",
        "wheelchair_boarding": "unknown"
      },
      "type": "Feature"
    },
    {
      "geometry": {
        "coordinates": [2.300057888031006, 49.88488006591797],
        "type": "Point"
      },
      "properties": {
        "description": "",
        "id": "StopArea:AMIplace_EGSM",
        "name": "EGLISE SAINT-MARTIN",
        "wheelchair_boarding": "unknown"
      },
      "type": "Feature"
    },
    {
      "geometry": {
        "coordinates": [2.326575994491577, 49.90782928466797],
        "type": "Point"
      },
      "properties": {
        "description": "",
        "id": "PFORT1",
        "name": "Petit Fort",
        "wheelchair_boarding": "unknown"
      },
      "type": "Feature"
    },
    {
      "geometry": { "coordinates": [2.247368, 49.911724], "type": "Point" },
      "properties": {
        "description": "",
        "id": "StopPoint:AMIARTOI2",
        "name": "Artois",
        "parent_station": "StopArea:AMIplace_ARTO",
        "wheelchair_boarding": "unknown"
      },
      "type": "Feature"
    },
    {
      "geometry": {
        "coordinates": [2.300057888031006, 49.88488006591797],
        "type": "Point"
      },
      "properties": {
        "description": "",
        "id": "StopPoint:AMIEGSMN1",
        "name": "Eglise Saint-Martin",
        "parent_station": "StopArea:AMIplace_EGSM",
        "wheelchair_boarding": "unknown"
      },
      "type": "Feature"
    },
    {
      "geometry": {
        "coordinates": [2.298224925994873, 49.91675567626953],
        "type": "Point"
      },
      "properties": {
        "description": "",
        "id": "StopPoint:AMIPICAS1",
        "name": "Picasso",
        "parent_station": "StopArea:AMIplace_PICA",
        "wheelchair_boarding": "unknown"
      },
      "type": "Feature"
    },
    {
      "geometry": {
        "coordinates": [2.302314043045044, 49.9680061340332],
        "type": "Point"
      },
      "properties": {
        "description": "",
        "id": "StopPoint:AMIBERCH1",
        "name": "Château d'Eau",
        "parent_station": "BERCH2",
        "wheelchair_boarding": "unknown"
      },
      "type": "Feature"
    },
    {
      "geometry": {
        "coordinates": [2.29632306098938, 49.895530700683594],
        "type": "Point"
      },
      "properties": {
        "description": "",
        "id": "BEFFRON",
        "name": "Beffroi",
        "wheelchair_boarding": "unknown"
      },
      "type": "Feature"
    },
    {
      "geometry": {
        "coordinates": [2.302962064743042, 49.92251968383789],
        "type": "Point"
      },
      "properties": {
        "description": "",
        "id": "StopPoint:AMICCNOR5",
        "name": "Centre Commercial Nord Quai B",
        "parent_station": "CCNOR2",
        "wheelchair_boarding": "unknown"
      },
      "type": "Feature"
    },
    {
      "geometry": {
        "coordinates": [2.354327917098999, 49.87163543701172],
        "type": "Point"
      },
      "properties": {
        "description": "",
        "id": "StopPoint:AMIPOIDEN1",
        "name": "Poidevin",
        "parent_station": "StopArea:AMIplace_POID",
        "wheelchair_boarding": "unknown"
      },
      "type": "Feature"
    },
    {
      "geometry": {
        "coordinates": [2.273698091506958, 49.91762924194336],
        "type": "Point"
      },
      "properties": {
        "description": "",
        "id": "StopPoint:AMIGUTEN2",
        "name": "Résidence Grant",
        "parent_station": "GUTEN1",
        "wheelchair_boarding": "unknown"
      },
      "type": "Feature"
    },
    {
      "geometry": { "coordinates": [2.318944, 49.882603], "type": "Point" },
      "properties": {
        "description": "",
        "id": "StopArea:AMIplace_MONS",
        "name": "MONS",
        "wheelchair_boarding": "unknown"
      },
      "type": "Feature"
    },
    {
      "geometry": { "coordinates": [2.296392, 49.871947], "type": "Point" },
      "properties": {
        "description": "",
        "id": "StopArea:AMIplace_POLY",
        "name": "POLE DES CLINIQUES",
        "wheelchair_boarding": "unknown"
      },
      "type": "Feature"
    },
    {
      "geometry": {
        "coordinates": [2.2123630046844482, 49.90068054199219],
        "type": "Point"
      },
      "properties": {
        "description": "",
        "id": "StopPoint:AMISAVEUS",
        "name": "Saveuse",
        "parent_station": "StopArea:AMIplace_SAVE",
        "wheelchair_boarding": "unknown"
      },
      "type": "Feature"
    },
    {
      "geometry": { "coordinates": [2.28916, 49.903809], "type": "Point" },
      "properties": {
        "description": "",
        "id": "StopArea:AMIplace_VIGC",
        "name": "VIGNACOURT",
        "wheelchair_boarding": "unknown"
      },
      "type": "Feature"
    },
    {
      "geometry": {
        "coordinates": [2.314985990524292, 49.90268325805664],
        "type": "Point"
      },
      "properties": {
        "description": "",
        "id": "StopPoint:AMIELOIMN1",
        "name": "Eloi Morel",
        "parent_station": "ELOIMN2",
        "wheelchair_boarding": "unknown"
      },
      "type": "Feature"
    },
    {
      "geometry": { "coordinates": [2.256597, 49.87182], "type": "Point" },
      "properties": {
        "description": "",
        "id": "StopArea:AMIplace_HSE",
        "name": "LAENNEC",
        "wheelchair_boarding": "unknown"
      },
      "type": "Feature"
    },
    {
      "geometry": { "coordinates": [2.256339, 49.862362], "type": "Point" },
      "properties": {
        "description": "",
        "id": "StopPoint:AMIMILLEP1",
        "name": "Millepertuis",
        "parent_station": "StopArea:AMIplace_MPER",
        "wheelchair_boarding": "unknown"
      },
      "type": "Feature"
    },
    {
      "geometry": { "coordinates": [2.301394, 49.879021], "type": "Point" },
      "properties": {
        "description": "",
        "id": "StopPoint:AMIPROVI2",
        "name": "La Providence",
        "parent_station": "StopArea:AMIplace_PROV",
        "wheelchair_boarding": "unknown"
      },
      "type": "Feature"
    },
    {
      "geometry": {
        "coordinates": [2.121000051498413, 49.84939956665039],
        "type": "Point"
      },
      "properties": {
        "description": "",
        "id": "REVMA",
        "name": "Revelles",
        "wheelchair_boarding": "unknown"
      },
      "type": "Feature"
    },
    {
      "geometry": {
        "coordinates": [2.319382905960083, 49.81846618652344],
        "type": "Point"
      },
      "properties": {
        "description": "",
        "id": "StopPoint:AMIMSAIN2",
        "name": "Mairie Sains-en-Amiénois",
        "parent_station": "MSAIN1",
        "wheelchair_boarding": "unknown"
      },
      "type": "Feature"
    },
    {
      "geometry": { "coordinates": [2.347907, 49.885835], "type": "Point" },
      "properties": {
        "description": "",
        "id": "StopArea:AMIplace_CHBA",
        "name": "CHEVALIER LA BARRE",
        "wheelchair_boarding": "unknown"
      },
      "type": "Feature"
    },
    {
      "geometry": {
        "coordinates": [2.2166171073913574, 49.900028228759766],
        "type": "Point"
      },
      "properties": {
        "description": "",
        "id": "StopPoint:AMIBOULV1",
        "name": "Boulevard",
        "parent_station": "StopArea:AMIplace_BOUL",
        "wheelchair_boarding": "unknown"
      },
      "type": "Feature"
    },
    {
      "geometry": {
        "coordinates": [2.26582407951355, 49.93903350830078],
        "type": "Point"
      },
      "properties": {
        "description": "",
        "id": "StopPoint:AMICROIPIE2",
        "name": "Croix de Pierre",
        "parent_station": "CROIPIE2",
        "wheelchair_boarding": "unknown"
      },
      "type": "Feature"
    },
    {
      "geometry": { "coordinates": [2.380176, 49.848818], "type": "Point" },
      "properties": {
        "description": "",
        "id": "StopArea:AMIplace_AVAS",
        "name": "ALEXANDRE VASSEUR",
        "wheelchair_boarding": "unknown"
      },
      "type": "Feature"
    },
    {
      "geometry": {
        "coordinates": [2.297197103500366, 49.89750671386719],
        "type": "Point"
      },
      "properties": {
        "description": "",
        "id": "StopArea:AMIplace_BRET",
        "name": "LA BRETESQUE",
        "wheelchair_boarding": "unknown"
      },
      "type": "Feature"
    },
    {
      "geometry": { "coordinates": [2.314078, 49.881089], "type": "Point" },
      "properties": {
        "description": "",
        "id": "StopPoint:AMI3D.I.N2",
        "name": "3ème D.I.",
        "parent_station": "StopArea:AMIplace_3D.I",
        "wheelchair_boarding": "unknown"
      },
      "type": "Feature"
    },
    {
      "geometry": { "coordinates": [2.313094, 49.876599], "type": "Point" },
      "properties": {
        "description": "",
        "id": "StopPoint:AMICIMACN1",
        "name": "Rollin",
        "parent_station": "StopArea:AMIplace_CIMA",
        "wheelchair_boarding": "unknown"
      },
      "type": "Feature"
    },
    {
      "geometry": {
        "coordinates": [2.3023550510406494, 49.96804428100586],
        "type": "Point"
      },
      "properties": {
        "description": "",
        "id": "BERCH2",
        "name": "Château d'Eau",
        "wheelchair_boarding": "unknown"
      },
      "type": "Feature"
    },
    {
      "geometry": {
        "coordinates": [2.2459349632263184, 49.91384506225586],
        "type": "Point"
      },
      "properties": {
        "description": "",
        "id": "StopPoint:AMIETOUVN1",
        "name": "Etouvie Quai A",
        "parent_station": "StopArea:AMIplace_ETO",
        "wheelchair_boarding": "unknown"
      },
      "type": "Feature"
    },
    {
      "geometry": { "coordinates": [2.313117, 49.945794], "type": "Point" },
      "properties": {
        "description": "",
        "id": "StopPoint:AMIDONJON",
        "name": "Donjon",
        "parent_station": "StopArea:AMIplace_DONJ",
        "wheelchair_boarding": "unknown"
      },
      "type": "Feature"
    },
    {
      "geometry": {
        "coordinates": [2.3468170166015625, 49.89872360229492],
        "type": "Point"
      },
      "properties": {
        "description": "",
        "id": "StopPoint:AMILUBARB1",
        "name": "Lucien Barbier",
        "parent_station": "StopArea:AMIplace_LUBA",
        "wheelchair_boarding": "unknown"
      },
      "type": "Feature"
    },
    {
      "geometry": {
        "coordinates": [2.3294360637664795, 49.909969329833984],
        "type": "Point"
      },
      "properties": {
        "description": "",
        "id": "StopPoint:AMIMARRO2",
        "name": "Les Marronniers",
        "parent_station": "MARRO2",
        "wheelchair_boarding": "unknown"
      },
      "type": "Feature"
    },
    {
      "geometry": {
        "coordinates": [2.397891044616699, 49.875213623046875],
        "type": "Point"
      },
      "properties": {
        "description": "",
        "id": "StopPoint:AMIGLISY2",
        "name": "Glisy",
        "parent_station": "GLISY2",
        "wheelchair_boarding": "unknown"
      },
      "type": "Feature"
    },
    {
      "geometry": {
        "coordinates": [2.3289859294891357, 49.8865852355957],
        "type": "Point"
      },
      "properties": {
        "description": "",
        "id": "StopPoint:AMITERRI1",
        "name": "Terrière",
        "parent_station": "StopArea:AMIplace_TERR",
        "wheelchair_boarding": "unknown"
      },
      "type": "Feature"
    },
    {
      "geometry": { "coordinates": [2.289227, 49.87389], "type": "Point" },
      "properties": {
        "description": "",
        "id": "StopPoint:AMIGBEAUN2",
        "name": "Georges Beauvais",
        "parent_station": "StopArea:AMIplace_GBEA",
        "wheelchair_boarding": "unknown"
      },
      "type": "Feature"
    },
    {
      "geometry": { "coordinates": [2.29013, 49.889288], "type": "Point" },
      "properties": {
        "description": "",
        "id": "StopPoint:AMIBRANLN1",
        "name": "Nicole Fontaine Quai D",
        "parent_station": "StopArea:AMIplace_BRA",
        "wheelchair_boarding": "unknown"
      },
      "type": "Feature"
    },
    {
      "geometry": { "coordinates": [2.364157, 49.919149], "type": "Point" },
      "properties": {
        "description": "",
        "id": "StopArea:AMIplace_OMER",
        "name": "OMER DETOURNE",
        "wheelchair_boarding": "unknown"
      },
      "type": "Feature"
    },
    {
      "geometry": { "coordinates": [2.241355, 49.858265], "type": "Point" },
      "properties": {
        "description": "",
        "id": "StopPoint:AMINAUGA2",
        "name": "Numa Augaez",
        "parent_station": "StopArea:AMIplace_NUMA",
        "wheelchair_boarding": "unknown"
      },
      "type": "Feature"
    },
    {
      "geometry": {
        "coordinates": [2.2695069313049316, 49.94110870361328],
        "type": "Point"
      },
      "properties": {
        "description": "",
        "id": "APAV2",
        "name": "APAVE",
        "wheelchair_boarding": "unknown"
      },
      "type": "Feature"
    },
    {
      "geometry": { "coordinates": [2.284397, 49.909451], "type": "Point" },
      "properties": {
        "description": "",
        "id": "StopPoint:AMIILOT2",
        "name": "Ilôt Saint-Maurice",
        "parent_station": "StopArea:AMIplace_ILOT",
        "wheelchair_boarding": "unknown"
      },
      "type": "Feature"
    },
    {
      "geometry": { "coordinates": [2.269299, 49.899082], "type": "Point" },
      "properties": {
        "description": "",
        "id": "StopPoint:AMICESEL2",
        "name": "Collège Edouard Lucas",
        "parent_station": "StopArea:AMIplace_CESE",
        "wheelchair_boarding": "unknown"
      },
      "type": "Feature"
    },
    {
      "geometry": {
        "coordinates": [2.2955470085144043, 49.89291763305664],
        "type": "Point"
      },
      "properties": {
        "description": "",
        "id": "HVDUMEN",
        "name": "Hôtel de Ville",
        "wheelchair_boarding": "unknown"
      },
      "type": "Feature"
    },
    {
      "geometry": {
        "coordinates": [2.290065050125122, 49.90728759765625],
        "type": "Point"
      },
      "properties": {
        "description": "",
        "id": "StopArea:AMIplace_HNOR",
        "name": "HOPITAL NORD",
        "wheelchair_boarding": "unknown"
      },
      "type": "Feature"
    },
    {
      "geometry": {
        "coordinates": [2.22121000289917, 49.90357971191406],
        "type": "Point"
      },
      "properties": {
        "description": "",
        "id": "StopPoint:AMIBOIDI2",
        "name": "Boidin",
        "parent_station": "StopArea:AMIplace_BOID",
        "wheelchair_boarding": "unknown"
      },
      "type": "Feature"
    },
    {
      "geometry": {
        "coordinates": [2.2922239303588867, 49.8945426940918],
        "type": "Point"
      },
      "properties": {
        "description": "",
        "id": "StopPoint:AMIMACUL5",
        "name": "Maison de la Culture Quai A",
        "parent_station": "MACUL5",
        "wheelchair_boarding": "unknown"
      },
      "type": "Feature"
    },
    {
      "geometry": {
        "coordinates": [2.2959229946136475, 49.890384674072266],
        "type": "Point"
      },
      "properties": {
        "description": "",
        "id": "StopArea:AMIplace_MUSE",
        "name": "MUSEE",
        "wheelchair_boarding": "unknown"
      },
      "type": "Feature"
    },
    {
      "geometry": {
        "coordinates": [2.357909917831421, 49.95119857788086],
        "type": "Point"
      },
      "properties": {
        "description": "",
        "id": "CARDON1",
        "name": "Cardonnette",
        "wheelchair_boarding": "unknown"
      },
      "type": "Feature"
    },
    {
      "geometry": { "coordinates": [2.276889, 49.875078], "type": "Point" },
      "properties": {
        "description": "",
        "id": "StopPoint:AMIPCLAU2",
        "name": "Paul Claudel",
        "parent_station": "StopArea:AMIplace_PACL",
        "wheelchair_boarding": "unknown"
      },
      "type": "Feature"
    },
    {
      "geometry": {
        "coordinates": [2.3863470554351807, 49.86490249633789],
        "type": "Point"
      },
      "properties": {
        "description": "",
        "id": "StopPoint:AMICLARI1",
        "name": "Clarins",
        "parent_station": "CLARI2",
        "wheelchair_boarding": "unknown"
      },
      "type": "Feature"
    },
    {
      "geometry": { "coordinates": [2.277511, 49.889597], "type": "Point" },
      "properties": {
        "description": "",
        "id": "StopPoint:AMISTRAS1",
        "name": "Strasbourg",
        "parent_station": "StopArea:AMIplace_STRA",
        "wheelchair_boarding": "unknown"
      },
      "type": "Feature"
    },
    {
      "geometry": { "coordinates": [2.3457, 49.893728], "type": "Point" },
      "properties": {
        "description": "",
        "id": "StopArea:AMIplace_PLIB",
        "name": "PLACE DES LIBERTES",
        "wheelchair_boarding": "unknown"
      },
      "type": "Feature"
    },
    {
      "geometry": { "coordinates": [2.341132, 49.894558], "type": "Point" },
      "properties": {
        "description": "",
        "id": "StopArea:AMIplace_CEGL",
        "name": "EGLISE DE CAMON",
        "wheelchair_boarding": "unknown"
      },
      "type": "Feature"
    },
    {
      "geometry": {
        "coordinates": [2.2676639556884766, 49.88526153564453],
        "type": "Point"
      },
      "properties": {
        "description": "",
        "id": "StopPoint:AMIRROUEN1",
        "name": "Route de Rouen",
        "parent_station": "RROUEN2",
        "wheelchair_boarding": "unknown"
      },
      "type": "Feature"
    },
    {
      "geometry": {
        "coordinates": [2.302860975265503, 49.88780212402344],
        "type": "Point"
      },
      "properties": {
        "description": "",
        "id": "StopPoint:AMIJOFFR1",
        "name": "Joffre",
        "parent_station": "StopArea:AMIplace_JOFF",
        "wheelchair_boarding": "unknown"
      },
      "type": "Feature"
    },
    {
      "geometry": {
        "coordinates": [2.312131881713867, 49.91063690185547],
        "type": "Point"
      },
      "properties": {
        "description": "",
        "id": "StopPoint:AMILEOLAN2",
        "name": "Nautilus",
        "parent_station": "StopArea:AMIplace_LEOL",
        "wheelchair_boarding": "unknown"
      },
      "type": "Feature"
    },
    {
      "geometry": {
        "coordinates": [2.331489086151123, 49.877357482910156],
        "type": "Point"
      },
      "properties": {
        "description": "",
        "id": "StopArea:AMIplace_RGOU",
        "name": "RAYMOND GOURDAIN",
        "wheelchair_boarding": "unknown"
      },
      "type": "Feature"
    },
    {
      "geometry": {
        "coordinates": [2.312716007232666, 49.91455841064453],
        "type": "Point"
      },
      "properties": {
        "description": "",
        "id": "StopPoint:AMIRAINE2",
        "name": "Rainneville",
        "parent_station": "RAINE2",
        "wheelchair_boarding": "unknown"
      },
      "type": "Feature"
    },
    {
      "geometry": {
        "coordinates": [2.2567760944366455, 49.92512130737305],
        "type": "Point"
      },
      "properties": {
        "description": "",
        "id": "StopPoint:AMIAMBONN2",
        "name": "Ambonne",
        "parent_station": "AMBONN2",
        "wheelchair_boarding": "unknown"
      },
      "type": "Feature"
    },
    {
      "geometry": {
        "coordinates": [2.329011917114258, 49.901241302490234],
        "type": "Point"
      },
      "properties": {
        "description": "",
        "id": "StopPoint:AMIFJOUR1",
        "name": "Florimond Jourdain",
        "parent_station": "FJOUR2",
        "wheelchair_boarding": "unknown"
      },
      "type": "Feature"
    },
    {
      "geometry": {
        "coordinates": [2.303004026412964, 49.91183853149414],
        "type": "Point"
      },
      "properties": {
        "description": "",
        "id": "StopArea:AMIplace_PNO",
        "name": "POLE D'ECHANGES NORD",
        "wheelchair_boarding": "unknown"
      },
      "type": "Feature"
    },
    {
      "geometry": {
        "coordinates": [2.279768943786621, 49.87042999267578],
        "type": "Point"
      },
      "properties": {
        "description": "",
        "id": "StopArea:AMIplace_VIGN",
        "name": "PINEL",
        "wheelchair_boarding": "unknown"
      },
      "type": "Feature"
    },
    {
      "geometry": { "coordinates": [2.280374, 49.895755], "type": "Point" },
      "properties": {
        "description": "",
        "id": "StopPoint:AMIREMBA1",
        "name": "Rembault",
        "parent_station": "StopArea:AMIplace_REMB",
        "wheelchair_boarding": "unknown"
      },
      "type": "Feature"
    },
    {
      "geometry": {
        "coordinates": [2.302706003189087, 49.910186767578125],
        "type": "Point"
      },
      "properties": {
        "description": "",
        "id": "StopPoint:AMIBERLIN2",
        "name": "Berlioz",
        "parent_station": "StopArea:AMIplace_BERL",
        "wheelchair_boarding": "unknown"
      },
      "type": "Feature"
    },
    {
      "geometry": { "coordinates": [2.316373, 49.874993], "type": "Point" },
      "properties": {
        "description": "",
        "id": "StopPoint:AMIORMAIN2",
        "name": "Ormaie",
        "parent_station": "StopArea:AMIplace_ORMA",
        "wheelchair_boarding": "unknown"
      },
      "type": "Feature"
    },
    {
      "geometry": { "coordinates": [2.345792, 49.886892], "type": "Point" },
      "properties": {
        "description": "",
        "id": "StopArea:AMIplace_EDMA",
        "name": "EDMOND MARQUIS",
        "wheelchair_boarding": "unknown"
      },
      "type": "Feature"
    },
    {
      "geometry": {
        "coordinates": [2.3303909301757812, 49.8812255859375],
        "type": "Point"
      },
      "properties": {
        "description": "",
        "id": "StopPoint:AMIMERCEN1",
        "name": "Mercey",
        "parent_station": "MERCEN2",
        "wheelchair_boarding": "unknown"
      },
      "type": "Feature"
    },
    {
      "geometry": {
        "coordinates": [2.297197103500366, 49.89750671386719],
        "type": "Point"
      },
      "properties": {
        "description": "",
        "id": "StopPoint:AMIBRETES1",
        "name": "La Bretesque",
        "parent_station": "StopArea:AMIplace_BRET",
        "wheelchair_boarding": "unknown"
      },
      "type": "Feature"
    },
    {
      "geometry": { "coordinates": [2.241735, 49.858663], "type": "Point" },
      "properties": {
        "description": "",
        "id": "StopArea:AMIplace_NUMA",
        "name": "NUMA AUGAEZ",
        "wheelchair_boarding": "unknown"
      },
      "type": "Feature"
    },
    {
      "geometry": {
        "coordinates": [2.281913995742798, 49.93903350830078],
        "type": "Point"
      },
      "properties": {
        "description": "",
        "id": "StopPoint:AMIMGFLO2",
        "name": "MGF Logistique",
        "parent_station": "MGFLO2",
        "wheelchair_boarding": "unknown"
      },
      "type": "Feature"
    },
    {
      "geometry": { "coordinates": [2.277996, 49.889946], "type": "Point" },
      "properties": {
        "description": "",
        "id": "StopPoint:AMIFRIANN1",
        "name": "Friant",
        "parent_station": "StopArea:AMIplace_FRIA",
        "wheelchair_boarding": "unknown"
      },
      "type": "Feature"
    },
    {
      "geometry": {
        "coordinates": [2.3011069297790527, 49.871864318847656],
        "type": "Point"
      },
      "properties": {
        "description": "",
        "id": "StopPoint:AMIAQUAPN4",
        "name": "Aquapôle",
        "parent_station": "StopArea:AMIplace_AQUA",
        "wheelchair_boarding": "unknown"
      },
      "type": "Feature"
    },
    {
      "geometry": {
        "coordinates": [2.275897979736328, 49.89033126831055],
        "type": "Point"
      },
      "properties": {
        "description": "",
        "id": "StopPoint:AMISTJUS2",
        "name": "Saint-Just",
        "parent_station": "STJUS2",
        "wheelchair_boarding": "unknown"
      },
      "type": "Feature"
    },
    {
      "geometry": { "coordinates": [2.251452, 49.882605], "type": "Point" },
      "properties": {
        "description": "",
        "id": "StopPoint:AMIAGEOR1",
        "name": "André Georges",
        "parent_station": "StopArea:AMIplace_AGEO",
        "wheelchair_boarding": "unknown"
      },
      "type": "Feature"
    },
    {
      "geometry": {
        "coordinates": [2.3512930870056152, 49.89818572998047],
        "type": "Point"
      },
      "properties": {
        "description": "",
        "id": "StopPoint:AMIEBRANL1",
        "name": "Edouard Branly",
        "parent_station": "StopArea:AMIplace_EBRA",
        "wheelchair_boarding": "unknown"
      },
      "type": "Feature"
    },
    {
      "geometry": {
        "coordinates": [2.3034780025482178, 49.9201774597168],
        "type": "Point"
      },
      "properties": {
        "description": "",
        "id": "StopPoint:AMICCNORN7",
        "name": "Centre Commercial Nord Quai C",
        "parent_station": "CCNOR2",
        "wheelchair_boarding": "unknown"
      },
      "type": "Feature"
    },
    {
      "geometry": { "coordinates": [2.28899, 49.903958], "type": "Point" },
      "properties": {
        "description": "",
        "id": "StopPoint:AMIVIGNA2",
        "name": "Vignacourt",
        "parent_station": "StopArea:AMIplace_VIGC",
        "wheelchair_boarding": "unknown"
      },
      "type": "Feature"
    },
    {
      "geometry": { "coordinates": [2.264765, 49.923448], "type": "Point" },
      "properties": {
        "description": "",
        "id": "StopArea:AMIplace_PICO",
        "name": "PIERRE CORNEILLE",
        "wheelchair_boarding": "unknown"
      },
      "type": "Feature"
    },
    {
      "geometry": {
        "coordinates": [2.316804885864258, 49.90644454956055],
        "type": "Point"
      },
      "properties": {
        "description": "",
        "id": "StopPoint:AMIDUCLO1",
        "name": "Jacques Duclos",
        "parent_station": "StopArea:AMIplace_DUCLO",
        "wheelchair_boarding": "unknown"
      },
      "type": "Feature"
    },
    {
      "geometry": {
        "coordinates": [2.311889886856079, 49.91068649291992],
        "type": "Point"
      },
      "properties": {
        "description": "",
        "id": "StopArea:AMIplace_LEOL",
        "name": "NAUTILUS",
        "wheelchair_boarding": "unknown"
      },
      "type": "Feature"
    },
    {
      "geometry": {
        "coordinates": [2.3022611141204834, 49.890541076660156],
        "type": "Point"
      },
      "properties": {
        "description": "",
        "id": "StopPoint:AMIRGOBLN1",
        "name": "Emile Zola",
        "parent_station": "RGOBLN1",
        "wheelchair_boarding": "unknown"
      },
      "type": "Feature"
    },
    {
      "geometry": { "coordinates": [2.357745, 49.870378], "type": "Point" },
      "properties": {
        "description": "",
        "id": "StopArea:AMIplace_MLON",
        "name": "MAIRIE DE LONGUEAU",
        "wheelchair_boarding": "unknown"
      },
      "type": "Feature"
    },
    {
      "geometry": {
        "coordinates": [2.278599977493286, 49.93077850341797],
        "type": "Point"
      },
      "properties": {
        "description": "",
        "id": "StopPoint:AMIQUENE1",
        "name": "Queneuder",
        "parent_station": "QUENE1",
        "wheelchair_boarding": "unknown"
      },
      "type": "Feature"
    },
    {
      "geometry": { "coordinates": [2.344634, 49.887654], "type": "Point" },
      "properties": {
        "description": "",
        "id": "StopPoint:AMIMCAMO1",
        "name": "Mairie de Camon",
        "parent_station": "StopArea:AMIplace_MCAM",
        "wheelchair_boarding": "unknown"
      },
      "type": "Feature"
    },
    {
      "geometry": {
        "coordinates": [2.3026609420776367, 49.91550064086914],
        "type": "Point"
      },
      "properties": {
        "description": "",
        "id": "StopPoint:AMIRORON1",
        "name": "Romain Rolland",
        "parent_station": "StopArea:AMIplace_RORO",
        "wheelchair_boarding": "unknown"
      },
      "type": "Feature"
    },
    {
      "geometry": { "coordinates": [2.246342, 49.872976], "type": "Point" },
      "properties": {
        "description": "",
        "id": "StopPoint:AMIHGREM2",
        "name": "Henri Grémont",
        "parent_station": "StopArea:AMIplace_HGRE",
        "wheelchair_boarding": "unknown"
      },
      "type": "Feature"
    },
    {
      "geometry": { "coordinates": [2.318959, 49.871348], "type": "Point" },
      "properties": {
        "description": "",
        "id": "StopPoint:AMIGORLIN1",
        "name": "Görlitz Quai C",
        "parent_station": "StopArea:AMIplace_GOR",
        "wheelchair_boarding": "unknown"
      },
      "type": "Feature"
    },
    {
      "geometry": { "coordinates": [2.248142, 49.915858], "type": "Point" },
      "properties": {
        "description": "",
        "id": "StopPoint:AMISQMARN2",
        "name": "Martinique",
        "parent_station": "StopArea:AMIplace_SQMA",
        "wheelchair_boarding": "unknown"
      },
      "type": "Feature"
    },
    {
      "geometry": {
        "coordinates": [2.3066670894622803, 49.903663635253906],
        "type": "Point"
      },
      "properties": {
        "description": "",
        "id": "StopArea:AMIplace_EGPI",
        "name": "EGLISE SAINT-PIERRE",
        "wheelchair_boarding": "unknown"
      },
      "type": "Feature"
    },
    {
      "geometry": {
        "coordinates": [2.27868390083313, 49.93064880371094],
        "type": "Point"
      },
      "properties": {
        "description": "",
        "id": "StopPoint:AMIQUENE2",
        "name": "Queneuder",
        "parent_station": "QUENE2",
        "wheelchair_boarding": "unknown"
      },
      "type": "Feature"
    },
    {
      "geometry": { "coordinates": [2.286659, 49.88618], "type": "Point" },
      "properties": {
        "description": "",
        "id": "StopPoint:AMIPAGES1",
        "name": "Pagès",
        "parent_station": "StopArea:AMIplace_PAGE",
        "wheelchair_boarding": "unknown"
      },
      "type": "Feature"
    },
    {
      "geometry": {
        "coordinates": [2.4169299602508545, 49.88066864013672],
        "type": "Point"
      },
      "properties": {
        "description": "",
        "id": "PBARO2",
        "name": "Paul Baroux",
        "wheelchair_boarding": "unknown"
      },
      "type": "Feature"
    },
    {
      "geometry": {
        "coordinates": [2.3218610286712646, 49.87576675415039],
        "type": "Point"
      },
      "properties": {
        "description": "",
        "id": "StopPoint:AMIPROV1",
        "name": "Les Provinciales",
        "parent_station": "StopArea:AMIplace_BLPA",
        "wheelchair_boarding": "unknown"
      },
      "type": "Feature"
    },
    {
      "geometry": { "coordinates": [2.284467, 49.909056], "type": "Point" },
      "properties": {
        "description": "",
        "id": "StopPoint:AMIILOT1",
        "name": "Ilôt Saint-Maurice",
        "parent_station": "StopArea:AMIplace_ILOT",
        "wheelchair_boarding": "unknown"
      },
      "type": "Feature"
    },
    {
      "geometry": {
        "coordinates": [2.2979109287261963, 49.89838790893555],
        "type": "Point"
      },
      "properties": {
        "description": "",
        "id": "WAIDEN",
        "name": "Waide",
        "wheelchair_boarding": "unknown"
      },
      "type": "Feature"
    },
    {
      "geometry": {
        "coordinates": [2.278033971786499, 49.89444351196289],
        "type": "Point"
      },
      "properties": {
        "description": "",
        "id": "StopPoint:AMICOLBEN2",
        "name": "Colbert",
        "parent_station": "StopArea:AMIplace_COLT",
        "wheelchair_boarding": "unknown"
      },
      "type": "Feature"
    },
    {
      "geometry": {
        "coordinates": [2.3067290782928467, 49.87921905517578],
        "type": "Point"
      },
      "properties": {
        "description": "",
        "id": "STQUE3",
        "name": "Saint-Quentin",
        "wheelchair_boarding": "unknown"
      },
      "type": "Feature"
    },
    {
      "geometry": {
        "coordinates": [2.308734893798828, 49.89406204223633],
        "type": "Point"
      },
      "properties": {
        "description": "",
        "id": "StopPoint:AMIALORRN1",
        "name": "Alsace Lorraine",
        "parent_station": "ALORRN2",
        "wheelchair_boarding": "unknown"
      },
      "type": "Feature"
    },
    {
      "geometry": {
        "coordinates": [2.2926599979400635, 49.92036437988281],
        "type": "Point"
      },
      "properties": {
        "description": "",
        "id": "LADREN1",
        "name": "Saint-Ladre",
        "wheelchair_boarding": "unknown"
      },
      "type": "Feature"
    },
    {
      "geometry": { "coordinates": [2.259765, 49.8711], "type": "Point" },
      "properties": {
        "description": "",
        "id": "StopPoint:AMIRTHILN1",
        "name": "Résidence du Thil",
        "parent_station": "StopArea:AMIplace_RTHI",
        "wheelchair_boarding": "unknown"
      },
      "type": "Feature"
    },
    {
      "geometry": {
        "coordinates": [2.26938796043396, 49.87461471557617],
        "type": "Point"
      },
      "properties": {
        "description": "",
        "id": "StopPoint:AMIRUNIV1",
        "name": "Résidences Universitaires",
        "parent_station": "StopArea:AMIplace_RUNI",
        "wheelchair_boarding": "unknown"
      },
      "type": "Feature"
    },
    {
      "geometry": { "coordinates": [2.2647, 49.888081], "type": "Point" },
      "properties": {
        "description": "",
        "id": "StopPoint:AMICOLBE1",
        "name": "La Selle",
        "parent_station": "StopArea:AMIplace_COLB",
        "wheelchair_boarding": "unknown"
      },
      "type": "Feature"
    },
    {
      "geometry": { "coordinates": [2.283463, 49.884491], "type": "Point" },
      "properties": {
        "description": "",
        "id": "StopArea:AMIplace_FORC",
        "name": "FORCEVILLE",
        "wheelchair_boarding": "unknown"
      },
      "type": "Feature"
    },
    {
      "geometry": { "coordinates": [2.391684, 49.845936], "type": "Point" },
      "properties": {
        "description": "",
        "id": "StopPoint:AMIMBOVE1",
        "name": "Mairie de Boves",
        "parent_station": "StopArea:AMIplace_MBOV",
        "wheelchair_boarding": "unknown"
      },
      "type": "Feature"
    },
    {
      "geometry": {
        "coordinates": [2.294750928878784, 49.91415023803711],
        "type": "Point"
      },
      "properties": {
        "description": "",
        "id": "StopPoint:AMIWATTE2",
        "name": "Watteau",
        "parent_station": "StopArea:AMIplace_WATT",
        "wheelchair_boarding": "unknown"
      },
      "type": "Feature"
    },
    {
      "geometry": {
        "coordinates": [2.1744000911712646, 49.86940002441406],
        "type": "Point"
      },
      "properties": {
        "description": "",
        "id": "StopPoint:AMIGUIMO",
        "name": "MAIRIE GUIGNEMICOURT",
        "parent_station": "MAGUI",
        "wheelchair_boarding": "unknown"
      },
      "type": "Feature"
    },
    {
      "geometry": {
        "coordinates": [2.372267961502075, 49.864768981933594],
        "type": "Point"
      },
      "properties": {
        "description": "",
        "id": "PHOTE1",
        "name": "Pôle Hôtelier",
        "wheelchair_boarding": "unknown"
      },
      "type": "Feature"
    },
    {
      "geometry": { "coordinates": [2.269236, 49.876715], "type": "Point" },
      "properties": {
        "description": "",
        "id": "StopArea:AMIplace_JMOU",
        "name": "JEAN MOULIN",
        "wheelchair_boarding": "unknown"
      },
      "type": "Feature"
    },
    {
      "geometry": {
        "coordinates": [2.3279330730438232, 49.86977005004883],
        "type": "Point"
      },
      "properties": {
        "description": "",
        "id": "StopPoint:AMIMTCALN1",
        "name": "Collège Guy Mareschal",
        "parent_station": "StopArea:AMIplace_MTCA",
        "wheelchair_boarding": "unknown"
      },
      "type": "Feature"
    },
    {
      "geometry": {
        "coordinates": [2.3584070205688477, 49.917972564697266],
        "type": "Point"
      },
      "properties": {
        "description": "",
        "id": "ALENCO",
        "name": "Les Alençons",
        "wheelchair_boarding": "unknown"
      },
      "type": "Feature"
    },
    {
      "geometry": { "coordinates": [2.376031, 49.848982], "type": "Point" },
      "properties": {
        "description": "",
        "id": "StopArea:AMIplace_MBAR",
        "name": "BOVES M. BARBIER",
        "wheelchair_boarding": "unknown"
      },
      "type": "Feature"
    },
    {
      "geometry": { "coordinates": [2.311805, 49.870933], "type": "Point" },
      "properties": {
        "description": "",
        "id": "StopPoint:AMICJMLA1",
        "name": "Collège Jean-Marc Laurent",
        "parent_station": "StopArea:AMIplace_CJML",
        "wheelchair_boarding": "unknown"
      },
      "type": "Feature"
    },
    {
      "geometry": {
        "coordinates": [2.3329689502716064, 49.901363372802734],
        "type": "Point"
      },
      "properties": {
        "description": "",
        "id": "StopPoint:AMIRICOR2",
        "name": "Cayeux",
        "parent_station": "RICOR2",
        "wheelchair_boarding": "unknown"
      },
      "type": "Feature"
    },
    {
      "geometry": {
        "coordinates": [2.297421932220459, 49.9116096496582],
        "type": "Point"
      },
      "properties": {
        "description": "",
        "id": "StopPoint:AMIPAIXN1",
        "name": "La Paix",
        "parent_station": "StopArea:AMIplace_PAIX",
        "wheelchair_boarding": "unknown"
      },
      "type": "Feature"
    },
    {
      "geometry": {
        "coordinates": [2.3021368980407715, 49.88870620727539],
        "type": "Point"
      },
      "properties": {
        "description": "",
        "id": "StopPoint:AMIOTAGEN2",
        "name": "Otages",
        "parent_station": "OTAGEN2",
        "wheelchair_boarding": "unknown"
      },
      "type": "Feature"
    },
    {
      "geometry": { "coordinates": [2.310862, 49.947553], "type": "Point" },
      "properties": {
        "description": "",
        "id": "StopPoint:AMIIDEFLE",
        "name": "Irénée Deflesselle",
        "parent_station": "StopArea:AMIplace_IDEF",
        "wheelchair_boarding": "unknown"
      },
      "type": "Feature"
    },
    {
      "geometry": {
        "coordinates": [2.305021047592163, 49.87109375],
        "type": "Point"
      },
      "properties": {
        "description": "",
        "id": "StopArea:AMIplace_CHAG",
        "name": "CHAMBRE D'AGRICULTURE",
        "wheelchair_boarding": "unknown"
      },
      "type": "Feature"
    },
    {
      "geometry": {
        "coordinates": [2.2929461002349854, 49.909732818603516],
        "type": "Point"
      },
      "properties": {
        "description": "",
        "id": "StopArea:AMIplace_TERA",
        "name": "TERRAL",
        "wheelchair_boarding": "unknown"
      },
      "type": "Feature"
    },
    {
      "geometry": {
        "coordinates": [2.294914960861206, 49.88421630859375],
        "type": "Point"
      },
      "properties": {
        "description": "",
        "id": "StopPoint:AMICMARTN2",
        "name": "Collège St-Martin",
        "parent_station": "CMARTN1",
        "wheelchair_boarding": "unknown"
      },
      "type": "Feature"
    },
    {
      "geometry": {
        "coordinates": [2.332289934158325, 49.872093200683594],
        "type": "Point"
      },
      "properties": {
        "description": "",
        "id": "StopArea:AMIplace_ELSA",
        "name": "ELSA TRIOLET",
        "wheelchair_boarding": "unknown"
      },
      "type": "Feature"
    },
    {
      "geometry": {
        "coordinates": [2.310457944869995, 49.83786392211914],
        "type": "Point"
      },
      "properties": {
        "description": "",
        "id": "PMANY2",
        "name": "Le Petit Many",
        "wheelchair_boarding": "unknown"
      },
      "type": "Feature"
    },
    {
      "geometry": {
        "coordinates": [2.3121399879455566, 49.842281341552734],
        "type": "Point"
      },
      "properties": {
        "description": "",
        "id": "StopPoint:AMICHPARI",
        "name": "Chaussée de Paris",
        "parent_station": "CHPARI",
        "wheelchair_boarding": "unknown"
      },
      "type": "Feature"
    },
    {
      "geometry": { "coordinates": [2.324588, 49.911628], "type": "Point" },
      "properties": {
        "description": "",
        "id": "StopArea:AMIplace_MARI",
        "name": "MARIVAUX",
        "wheelchair_boarding": "unknown"
      },
      "type": "Feature"
    },
    {
      "geometry": {
        "coordinates": [2.3092620372772217, 49.91484451293945],
        "type": "Point"
      },
      "properties": {
        "description": "",
        "id": "StopPoint:AMISTANON2",
        "name": "Stade Nord",
        "parent_station": "STANON2",
        "wheelchair_boarding": "unknown"
      },
      "type": "Feature"
    },
    {
      "geometry": {
        "coordinates": [2.142699956893921, 49.884300231933594],
        "type": "Point"
      },
      "properties": {
        "description": "",
        "id": "StopPoint:AMIBOMAE",
        "name": "Bovelles",
        "parent_station": "BOMAE",
        "wheelchair_boarding": "unknown"
      },
      "type": "Feature"
    },
    {
      "geometry": {
        "coordinates": [2.280400037765503, 49.807899475097656],
        "type": "Point"
      },
      "properties": {
        "description": "",
        "id": "RUMIG",
        "name": "Rumigny",
        "wheelchair_boarding": "unknown"
      },
      "type": "Feature"
    },
    {
      "geometry": { "coordinates": [2.242821, 49.878804], "type": "Point" },
      "properties": {
        "description": "",
        "id": "StopArea:AMIplace_CHAT",
        "name": "CHATEAU",
        "wheelchair_boarding": "unknown"
      },
      "type": "Feature"
    },
    {
      "geometry": {
        "coordinates": [2.2990689277648926, 49.90117645263672],
        "type": "Point"
      },
      "properties": {
        "description": "",
        "id": "StopPoint:AMICIMONN1",
        "name": "Citadelle Montrescu Quai B",
        "parent_station": "StopArea:AMIplace_CIT",
        "wheelchair_boarding": "unknown"
      },
      "type": "Feature"
    },
    {
      "geometry": { "coordinates": [2.306, 49.889149], "type": "Point" },
      "properties": {
        "description": "",
        "id": "StopArea:AMIplace_GDN",
        "name": "GARE DU NORD",
        "wheelchair_boarding": "unknown"
      },
      "type": "Feature"
    },
    {
      "geometry": {
        "coordinates": [2.3024539947509766, 49.9139289855957],
        "type": "Point"
      },
      "properties": {
        "description": "",
        "id": "StopPoint:AMISANTEN1",
        "name": "Espace Santé",
        "parent_station": "StopArea:AMIplace_SANT",
        "wheelchair_boarding": "unknown"
      },
      "type": "Feature"
    },
    {
      "geometry": {
        "coordinates": [2.361531972885132, 49.87037658691406],
        "type": "Point"
      },
      "properties": {
        "description": "",
        "id": "StopPoint:AMIGEPHI1",
        "name": "Gérard Philipe",
        "parent_station": "GEPHI1",
        "wheelchair_boarding": "unknown"
      },
      "type": "Feature"
    },
    {
      "geometry": {
        "coordinates": [2.3144829273223877, 49.8371696472168],
        "type": "Point"
      },
      "properties": {
        "description": "",
        "id": "StopPoint:AMIFUSCI2",
        "name": "Saint-Fuscien",
        "parent_station": "FUSCI2",
        "wheelchair_boarding": "unknown"
      },
      "type": "Feature"
    },
    {
      "geometry": {
        "coordinates": [2.274907112121582, 49.883060455322266],
        "type": "Point"
      },
      "properties": {
        "description": "",
        "id": "StopPoint:AMIQUALEN1",
        "name": "Quatre Lemaire",
        "parent_station": "StopArea:AMIplace_QLEM",
        "wheelchair_boarding": "unknown"
      },
      "type": "Feature"
    },
    {
      "geometry": { "coordinates": [2.282378, 49.912485], "type": "Point" },
      "properties": {
        "description": "",
        "id": "StopPoint:AMICMADE1",
        "name": "Cimetière La Madeleine",
        "parent_station": "StopArea:AMIplace_CMAD",
        "wheelchair_boarding": "unknown"
      },
      "type": "Feature"
    },
    {
      "geometry": {
        "coordinates": [2.3257639408111572, 49.90926742553711],
        "type": "Point"
      },
      "properties": {
        "description": "",
        "id": "StopPoint:AMIBEAUM1",
        "name": "Beaumarchais",
        "parent_station": "BEAUM2",
        "wheelchair_boarding": "unknown"
      },
      "type": "Feature"
    },
    {
      "geometry": { "coordinates": [2.263367, 49.887703], "type": "Point" },
      "properties": {
        "description": "",
        "id": "StopPoint:AMIEGJEA1",
        "name": "Eglise Petit St-Jean",
        "parent_station": "StopArea:AMIplace_EGSJ",
        "wheelchair_boarding": "unknown"
      },
      "type": "Feature"
    },
    {
      "geometry": {
        "coordinates": [2.3249709606170654, 49.88340759277344],
        "type": "Point"
      },
      "properties": {
        "description": "",
        "id": "StopPoint:AMIEGACHN1",
        "name": "Eglise St-Acheul",
        "parent_station": "EGACHN1",
        "wheelchair_boarding": "unknown"
      },
      "type": "Feature"
    },
    {
      "geometry": {
        "coordinates": [2.3259220123291016, 49.90211868286133],
        "type": "Point"
      },
      "properties": {
        "description": "",
        "id": "StopPoint:AMITHDEL1",
        "name": "Thuillier-Delambre",
        "parent_station": "THDEL2",
        "wheelchair_boarding": "unknown"
      },
      "type": "Feature"
    },
    {
      "geometry": {
        "coordinates": [2.346637010574341, 49.898677825927734],
        "type": "Point"
      },
      "properties": {
        "description": "",
        "id": "StopArea:AMIplace_LUBA",
        "name": "LUCIEN BARBIER",
        "wheelchair_boarding": "unknown"
      },
      "type": "Feature"
    },
    {
      "geometry": { "coordinates": [2.313652, 49.946314], "type": "Point" },
      "properties": {
        "description": "",
        "id": "StopPoint:AMIMPOULA",
        "name": "Mairie de Poulainville",
        "parent_station": "StopArea:AMIplace_MPOU",
        "wheelchair_boarding": "unknown"
      },
      "type": "Feature"
    },
    {
      "geometry": {
        "coordinates": [2.300889015197754, 49.90431213378906],
        "type": "Point"
      },
      "properties": {
        "description": "",
        "id": "StopPoint:AMICIFRAN1",
        "name": "Citadelle François 1er",
        "parent_station": "StopArea:AMIplace_CIT",
        "wheelchair_boarding": "unknown"
      },
      "type": "Feature"
    },
    {
      "geometry": { "coordinates": [2.259183, 49.866864], "type": "Point" },
      "properties": {
        "description": "",
        "id": "StopPoint:AMIGOLF2",
        "name": "Golf",
        "parent_station": "StopArea:AMIplace_GOLF",
        "wheelchair_boarding": "unknown"
      },
      "type": "Feature"
    },
    {
      "geometry": {
        "coordinates": [2.2924880981445312, 49.894405364990234],
        "type": "Point"
      },
      "properties": {
        "description": "",
        "id": "MACUL6",
        "name": "Maison de la Culture Quai B",
        "wheelchair_boarding": "unknown"
      },
      "type": "Feature"
    },
    {
      "geometry": {
        "coordinates": [2.3304240703582764, 49.91011428833008],
        "type": "Point"
      },
      "properties": {
        "description": "",
        "id": "StopPoint:AMIMARRO1",
        "name": "Les Marronniers",
        "parent_station": "MARRO2",
        "wheelchair_boarding": "unknown"
      },
      "type": "Feature"
    },
    {
      "geometry": {
        "coordinates": [2.282299041748047, 49.92876434326172],
        "type": "Point"
      },
      "properties": {
        "description": "",
        "id": "StopPoint:AMIDUROU2",
        "name": "Durouchez",
        "parent_station": "DUROU2",
        "wheelchair_boarding": "unknown"
      },
      "type": "Feature"
    },
    {
      "geometry": { "coordinates": [2.400847, 49.849414], "type": "Point" },
      "properties": {
        "description": "",
        "id": "StopArea:AMIplace_BDOR",
        "name": "DORGELES",
        "wheelchair_boarding": "unknown"
      },
      "type": "Feature"
    },
    {
      "geometry": { "coordinates": [2.290373, 49.889776], "type": "Point" },
      "properties": {
        "description": "",
        "id": "StopArea:AMIplace_BRA",
        "name": "NICOLE FONTAINE",
        "wheelchair_boarding": "unknown"
      },
      "type": "Feature"
    },
    {
      "geometry": {
        "coordinates": [2.326575994491577, 49.90782928466797],
        "type": "Point"
      },
      "properties": {
        "description": "",
        "id": "StopPoint:AMIPFORT1",
        "name": "Petit Fort",
        "parent_station": "PFORT1",
        "wheelchair_boarding": "unknown"
      },
      "type": "Feature"
    },
    {
      "geometry": { "coordinates": [2.256767, 49.878056], "type": "Point" },
      "properties": {
        "description": "",
        "id": "StopPoint:AMIHPLSU1",
        "name": "Siberchicot",
        "parent_station": "StopArea:AMIplace_HSUD",
        "wheelchair_boarding": "unknown"
      },
      "type": "Feature"
    },
    {
      "geometry": { "coordinates": [2.312717, 49.880873], "type": "Point" },
      "properties": {
        "description": "",
        "id": "StopPoint:AMI3D.I.N1",
        "name": "3ème D.I.",
        "parent_station": "StopArea:AMIplace_3D.I",
        "wheelchair_boarding": "unknown"
      },
      "type": "Feature"
    },
    {
      "geometry": { "coordinates": [2.242803, 49.878819], "type": "Point" },
      "properties": {
        "description": "",
        "id": "StopPoint:AMICHATE1",
        "name": "Château",
        "parent_station": "StopArea:AMIplace_CHAT",
        "wheelchair_boarding": "unknown"
      },
      "type": "Feature"
    },
    {
      "geometry": {
        "coordinates": [2.2660179138183594, 49.9390869140625],
        "type": "Point"
      },
      "properties": {
        "description": "",
        "id": "CROIPIE1",
        "name": "Croix de Pierre",
        "wheelchair_boarding": "unknown"
      },
      "type": "Feature"
    },
    {
      "geometry": {
        "coordinates": [2.27997088432312, 49.933799743652344],
        "type": "Point"
      },
      "properties": {
        "description": "",
        "id": "StopPoint:AMIVALEO2",
        "name": "Valéo",
        "parent_station": "VALEO2",
        "wheelchair_boarding": "unknown"
      },
      "type": "Feature"
    },
    {
      "geometry": {
        "coordinates": [2.2849369049072266, 49.871456146240234],
        "type": "Point"
      },
      "properties": {
        "description": "",
        "id": "StopPoint:AMIMAPADN1",
        "name": "Espagne",
        "parent_station": "StopArea:AMIplace_MAPA",
        "wheelchair_boarding": "unknown"
      },
      "type": "Feature"
    },
    {
      "geometry": {
        "coordinates": [2.3992984294891357, 49.86788558959961],
        "type": "Point"
      },
      "properties": {
        "description": "",
        "id": "StopPoint:AMIZACHAR1",
        "name": "Maître Zacharius",
        "parent_station": "ZACHAR1",
        "wheelchair_boarding": "unknown"
      },
      "type": "Feature"
    },
    {
      "geometry": { "coordinates": [2.275675, 49.879917], "type": "Point" },
      "properties": {
        "description": "",
        "id": "StopPoint:AMICTPET1",
        "name": "Cité Petit",
        "parent_station": "StopArea:AMIplace_CITP",
        "wheelchair_boarding": "unknown"
      },
      "type": "Feature"
    },
    {
      "geometry": { "coordinates": [2.296084, 49.898475], "type": "Point" },
      "properties": {
        "description": "",
        "id": "StopPoint:AMIPVOGEN4",
        "name": "Vogel Quai B",
        "parent_station": "StopArea:AMIplace_VOG",
        "wheelchair_boarding": "unknown"
      },
      "type": "Feature"
    },
    {
      "geometry": { "coordinates": [2.240672, 49.866732], "type": "Point" },
      "properties": {
        "description": "",
        "id": "StopPoint:AMIPASTE1",
        "name": "Pasteur",
        "parent_station": "StopArea:AMIplace_PAST",
        "wheelchair_boarding": "unknown"
      },
      "type": "Feature"
    },
    {
      "geometry": {
        "coordinates": [2.3059380054473877, 49.922332763671875],
        "type": "Point"
      },
      "properties": {
        "description": "",
        "id": "StopArea:AMIplace_FRE",
        "name": "PROMENADE",
        "wheelchair_boarding": "unknown"
      },
      "type": "Feature"
    },
    {
      "geometry": {
        "coordinates": [2.32539701461792, 49.87353515625],
        "type": "Point"
      },
      "properties": {
        "description": "",
        "id": "StopArea:AMIplace_CCAS",
        "name": "CITE DES CASTORS",
        "wheelchair_boarding": "unknown"
      },
      "type": "Feature"
    },
    {
      "geometry": {
        "coordinates": [2.2558720111846924, 49.91661834716797],
        "type": "Point"
      },
      "properties": {
        "description": "",
        "id": "StopPoint:AMILANGUN2",
        "name": "Languedoc",
        "parent_station": "LANGUN2",
        "wheelchair_boarding": "unknown"
      },
      "type": "Feature"
    },
    {
      "geometry": {
        "coordinates": [2.315545082092285, 49.9028434753418],
        "type": "Point"
      },
      "properties": {
        "description": "",
        "id": "ELOIMN2",
        "name": "Eloi Morel",
        "wheelchair_boarding": "unknown"
      },
      "type": "Feature"
    },
    {
      "geometry": { "coordinates": [2.251547, 49.882555], "type": "Point" },
      "properties": {
        "description": "",
        "id": "StopArea:AMIplace_AGEO",
        "name": "ANDRE GEORGES",
        "wheelchair_boarding": "unknown"
      },
      "type": "Feature"
    },
    {
      "geometry": {
        "coordinates": [2.3992104530334473, 49.86781311035156],
        "type": "Point"
      },
      "properties": {
        "description": "",
        "id": "StopPoint:AMIZACHAR2",
        "name": "Maître Zacharius",
        "parent_station": "ZACHAR1",
        "wheelchair_boarding": "unknown"
      },
      "type": "Feature"
    },
    {
      "geometry": {
        "coordinates": [2.3067500591278076, 49.89107131958008],
        "type": "Point"
      },
      "properties": {
        "description": "",
        "id": "StopPoint:AMIGARENC",
        "name": "Gare du Nord Quai C",
        "parent_station": "StopArea:AMIplace_GDN",
        "wheelchair_boarding": "unknown"
      },
      "type": "Feature"
    },
    {
      "geometry": { "coordinates": [2.278788, 49.91532], "type": "Point" },
      "properties": {
        "description": "",
        "id": "StopPoint:AMIMADEL2",
        "name": "Gutenberg",
        "parent_station": "StopArea:AMIplace_MADEL",
        "wheelchair_boarding": "unknown"
      },
      "type": "Feature"
    },
    {
      "geometry": { "coordinates": [2.300993, 49.871696], "type": "Point" },
      "properties": {
        "description": "",
        "id": "StopArea:AMIplace_AQUA",
        "name": "AQUAPOLE",
        "wheelchair_boarding": "unknown"
      },
      "type": "Feature"
    },
    {
      "geometry": {
        "coordinates": [2.310915946960449, 49.912689208984375],
        "type": "Point"
      },
      "properties": {
        "description": "",
        "id": "CAMBRN1",
        "name": "Cambrésis",
        "wheelchair_boarding": "unknown"
      },
      "type": "Feature"
    },
    {
      "geometry": { "coordinates": [2.347038, 49.888776], "type": "Point" },
      "properties": {
        "description": "",
        "id": "StopPoint:AMIVALLE2",
        "name": "La Vallée",
        "parent_station": "StopArea:AMIplace_VAEY",
        "wheelchair_boarding": "unknown"
      },
      "type": "Feature"
    },
    {
      "geometry": {
        "coordinates": [2.362704038619995, 49.93452835083008],
        "type": "Point"
      },
      "properties": {
        "description": "",
        "id": "StopPoint:AMIALMOU2",
        "name": "ZAC Allonville",
        "parent_station": "ALMOU1",
        "wheelchair_boarding": "unknown"
      },
      "type": "Feature"
    },
    {
      "geometry": {
        "coordinates": [2.326266050338745, 49.869598388671875],
        "type": "Point"
      },
      "properties": {
        "description": "",
        "id": "StopPoint:AMIMTCALN2",
        "name": "Collège Guy Mareschal",
        "parent_station": "StopArea:AMIplace_MTCA",
        "wheelchair_boarding": "unknown"
      },
      "type": "Feature"
    },
    {
      "geometry": {
        "coordinates": [2.30362606048584, 49.88625717163086],
        "type": "Point"
      },
      "properties": {
        "description": "",
        "id": "StopPoint:AMICSALL2",
        "name": "Collège de la Salle",
        "parent_station": "StopArea:AMIplace_CSAL",
        "wheelchair_boarding": "unknown"
      },
      "type": "Feature"
    },
    {
      "geometry": { "coordinates": [2.400839, 49.849434], "type": "Point" },
      "properties": {
        "description": "",
        "id": "StopPoint:AMIBDORG1",
        "name": "Dorgelès",
        "parent_station": "StopArea:AMIplace_BDOR",
        "wheelchair_boarding": "unknown"
      },
      "type": "Feature"
    },
    {
      "geometry": {
        "coordinates": [2.3611059188842773, 49.869022369384766],
        "type": "Point"
      },
      "properties": {
        "description": "",
        "id": "StopArea:AMIplace_FOUR",
        "name": "LA FOURCHE",
        "wheelchair_boarding": "unknown"
      },
      "type": "Feature"
    },
    {
      "geometry": {
        "coordinates": [2.3174450397491455, 49.905914306640625],
        "type": "Point"
      },
      "properties": {
        "description": "",
        "id": "StopPoint:AMICVICTN2",
        "name": "Centre Saint-Victor",
        "parent_station": "StopArea:AMIplace_CVIC",
        "wheelchair_boarding": "unknown"
      },
      "type": "Feature"
    },
    {
      "geometry": {
        "coordinates": [2.301832914352417, 49.907196044921875],
        "type": "Point"
      },
      "properties": {
        "description": "",
        "id": "StopPoint:AMICLEMEN2",
        "name": "Clémenceau",
        "parent_station": "StopArea:AMIplace_CLEM",
        "wheelchair_boarding": "unknown"
      },